{"_id":{"$oid":"5af7493818e4261b6296a900"},"school_name":"Adelanto Elementary School","school_type":"public","gsrating":"1","parentrating":"3","graderange":"K-6","enrollment":"469","lat":"34.576157","lon":"-117.40949","city":"Adelanto","website":"http://www.aesd.net/","phone":"(760) 246-5892"}
{"_id":{"$oid":"5af7493818e4261b6296a901"},"school_name":"Adelanto High School","school_type":"public","gsrating":"NA","parentrating":"3","graderange":"9-12","enrollment":"1750","lat":"34.531548","lon":"-117.441284","city":"Adelanto","website":"http://ahs.vvuhsd.org/","phone":"(760) 246-3909"}
{"_id":{"$oid":"5af7493818e4261b6296a902"},"school_name":"Carpe Diem Learning Academy","school_type":"private","gsrating":"NA","parentrating":"3","graderange":"1-12","enrollment":"NA","lat":"34.519","lon":"-117.40623","city":"Adelanto","website":"","phone":"(760) 530-1576"}
{"_id":{"$oid":"5af7493818e4261b6296a903"},"school_name":"Columbia Middle School","school_type":"public","gsrating":"1","parentrating":"3","graderange":"7-8","enrollment":"391","lat":"34.511086","lon":"-117.4347","city":"Adelanto","website":"","phone":"(760) 530-1950"}
{"_id":{"$oid":"5af7493818e4261b6296a904"},"school_name":"Desert Trails Elementary School","school_type":"charter","gsrating":"NA","parentrating":"2","graderange":"K-6","enrollment":"512","lat":"34.537495","lon":"-117.4606","city":"Adelanto","website":"","phone":""}
{"_id":{"$oid":"5af7493818e4261b6296a905"},"school_name":"Desert Trails Preparatory Academy","school_type":"charter","gsrating":"NA","parentrating":"5","graderange":"PK-6","enrollment":"550","lat":"34.51157","lon":"-117.417274","city":"Adelanto","website":"www.dtpacademy.com","phone":"(760) 530-7680"}
{"_id":{"$oid":"5af7493818e4261b6296a906"},"school_name":"Donald F. Bradach Elementary School","school_type":"public","gsrating":"2","parentrating":"3","graderange":"K-8","enrollment":"763","lat":"34.53361","lon":"-117.41706","city":"Adelanto","website":"www.aesd.net","phone":"(760) 246-5016"}
{"_id":{"$oid":"5af7493818e4261b6296a907"},"school_name":"Eagle Ranch School","school_type":"public","gsrating":"2","parentrating":"4","graderange":"K-6","enrollment":"765","lat":"34.478245","lon":"-117.38901","city":"Adelanto","website":"www.aesd.net","phone":"(760) 949-2100"}
{"_id":{"$oid":"5af7493818e4261b6296a908"},"school_name":"Eileen Hyder Academy","school_type":"private","gsrating":"NA","parentrating":"4","graderange":"K-12","enrollment":"NA","lat":"34.577686","lon":"-117.40572","city":"Adelanto","website":"","phone":"(760) 246-8242"}
{"_id":{"$oid":"5af7493818e4261b6296a909"},"school_name":"George Visual and Performing Arts Magnet and Middle School","school_type":"public","gsrating":"5","parentrating":"4","graderange":"K-8","enrollment":"699","lat":"34.575417","lon":"-117.36521","city":"Adelanto","website":"www.aesd.net","phone":"(760) 246-8231"}
{"_id":{"$oid":"5af7493818e4261b6296a90a"},"school_name":"Poiema Christian School","school_type":"private","gsrating":"NA","parentrating":"4","graderange":"K-12","enrollment":"NA","lat":"34.53161","lon":"-117.41532","city":"Adelanto","website":"","phone":"(760) 530-5527"}
{"_id":{"$oid":"5af7493818e4261b6296a90b"},"school_name":"Taylion High Desert Academy","school_type":"charter","gsrating":"1","parentrating":"5","graderange":"K-12","enrollment":"184","lat":"34.57972","lon":"-117.41811","city":"Adelanto","website":"www.taylion.com","phone":"(602) 439-5026"}
{"_id":{"$oid":"5af7493818e4261b6296a90c"},"school_name":"Theodore Vick Elementary School","school_type":"public","gsrating":"1","parentrating":"4","graderange":"K-8","enrollment":"776","lat":"34.51347","lon":"-117.43334","city":"Adelanto","website":"www.aesd.net","phone":"(760) 530-1750"}
{"_id":{"$oid":"5af7493818e4261b6296a90d"},"school_name":"Victoria Magathan Elementary School","school_type":"public","gsrating":"3","parentrating":"4","graderange":"K-6","enrollment":"639","lat":"34.54301","lon":"-117.41462","city":"Adelanto","website":"www.aesd.net","phone":"(760) 246-8872"}
{"_id":{"$oid":"5af7493818e4261b6296a90e"},"school_name":"Westside Park Elementary School","school_type":"public","gsrating":"1","parentrating":"4","graderange":"K-6","enrollment":"630","lat":"34.58227","lon":"-117.42178","city":"Adelanto","website":"www.aesd.net","phone":"(760) 246-4118"}
{"_id":{"$oid":"5af7493818e4261b6296a90f"},"school_name":"Born Learners School","school_type":"private","gsrating":"NA","parentrating":"5","graderange":"K","enrollment":"11","lat":"34.14096","lon":"-118.744576","city":"Agoura Hills","website":"http://www.bornlearnersschool.com/","phone":"(818) 991-7752"}
{"_id":{"$oid":"5af7493818e4261b6296a910"},"school_name":"Conejo Jewish Day School","school_type":"private","gsrating":"NA","parentrating":"4","graderange":"K-8","enrollment":"NA","lat":"34.14","lon":"-118.74","city":"Agoura Hills","website":"","phone":"(805) 494-7217"}
{"_id":{"$oid":"5af7493818e4261b6296a911"},"school_name":"Ilan Ramon Day School","school_type":"private","gsrating":"NA","parentrating":"5","graderange":"PK-5","enrollment":"150","lat":"34.13907","lon":"-118.72199","city":"Agoura Hills","website":"www.ilanramondayschool.com","phone":"(818) 707-2365"}
{"_id":{"$oid":"5af7493818e4261b6296a912"},"school_name":"Montessori School Of Agoura","school_type":"private","gsrating":"NA","parentrating":"4","graderange":"K-1","enrollment":"46","lat":"34.145485","lon":"-118.73957","city":"Agoura Hills","website":"http://montessoriagoura.com/","phone":"(818) 991-8936"}
{"_id":{"$oid":"5af7493818e4261b6296a913"},"school_name":"Yerba Buena Elementary School","school_type":"public","gsrating":"8","parentrating":"5","graderange":"K-5","enrollment":"414","lat":"34.163593","lon":"-118.78786","city":"Agoura Hills","website":"http://www.yerbabuenaelementary.org/","phone":"(818) 889-0040"}
{"_id":{"$oid":"5af7493818e4261b6296a914"},"school_name":"Alameda Christian School","school_type":"private","gsrating":"NA","parentrating":"5","graderange":"K-8","enrollment":"48","lat":"37.768845","lon":"-122.24388","city":"Alameda","website":"http://www.alamedachristianschool.com","phone":"(510) 523-1000"}
{"_id":{"$oid":"5af7493818e4261b6296a915"},"school_name":"Alameda Community Learning Center","school_type":"charter","gsrating":"8","parentrating":"4","graderange":"6-12","enrollment":"375","lat":"37.779053","lon":"-122.28703","city":"Alameda","website":"http://www.alamedaclc.org","phone":"(510) 995-4300"}
{"_id":{"$oid":"5af7493818e4261b6296a916"},"school_name":"Alameda High School","school_type":"public","gsrating":"9","parentrating":"4","graderange":"9-12","enrollment":"1853","lat":"37.764267","lon":"-122.24809","city":"Alameda","website":"http://aus.alamedausd.ca.schoolloop.com/","phone":"(510) 337-7022"}
{"_id":{"$oid":"5af7493818e4261b6296a917"},"school_name":"Alameda Science And Technology Institute","school_type":"public","gsrating":"9","parentrating":"4","graderange":"9-12","enrollment":"174","lat":"37.77984","lon":"-122.28042","city":"Alameda","website":"https://asti-alamedausd-ca.schoolloop.com/","phone":"(510) 748-4021"}
{"_id":{"$oid":"5af7493818e4261b6296a918"},"school_name":"Amelia Earhart Elementary School","school_type":"public","gsrating":"9","parentrating":"5","graderange":"K-5","enrollment":"622","lat":"37.745266","lon":"-122.23931","city":"Alameda","website":"","phone":"(510) 748-4003"}
{"_id":{"$oid":"5af7493818e4261b6296a919"},"school_name":"Applied Scholastics Academy, East Bay","school_type":"private","gsrating":"NA","parentrating":"5","graderange":"K-12","enrollment":"13","lat":"37.76968","lon":"-122.24931","city":"Alameda","website":"http://asaeastbay.com/","phone":"(510) 748-0428"}
{"_id":{"$oid":"5af7493818e4261b6296a91a"},"school_name":"Bay Farm","school_type":"public","gsrating":"9","parentrating":"5","graderange":"K-8","enrollment":"583","lat":"37.739","lon":"-122.25199","city":"Alameda","website":"","phone":"(510) 748-4010"}
{"_id":{"$oid":"5af7493818e4261b6296a91b"},"school_name":"Central Christian School","school_type":"private","gsrating":"NA","parentrating":"3","graderange":"K-3","enrollment":"NA","lat":"37.767033","lon":"-122.24836","city":"Alameda","website":"http://www.cde.ca.gov/SchoolDirectory/details?cdscode=01611196202253","phone":"(510) 523-7858"}
{"_id":{"$oid":"5af7493818e4261b6296a91c"},"school_name":"Children's Learning Center","school_type":"private","gsrating":"NA","parentrating":"5","graderange":"1-12","enrollment":"NA","lat":"37.76858","lon":"-122.25329","city":"Alameda","website":"http://www.clcalameda.com/","phone":"(510) 769-7100"}
{"_id":{"$oid":"5af7493818e4261b6296a91d"},"school_name":"Children's Learning Center","school_type":"private","gsrating":"NA","parentrating":"5","graderange":"K-5","enrollment":"NA","lat":"37.766087","lon":"-122.248116","city":"Alameda","website":"","phone":"(510) 769-7100"}
{"_id":{"$oid":"5af7493818e4261b6296a91e"},"school_name":"Chinese American Schools - Alameda","school_type":"private","gsrating":"NA","parentrating":"5","graderange":"9-12","enrollment":"NA","lat":"37.725845","lon":"-122.23934","city":"Alameda","website":"","phone":"(510) 814-7321"}
{"_id":{"$oid":"5af7493818e4261b6296a91f"},"school_name":"Chinese Christian Schools - Alameda","school_type":"private","gsrating":"NA","parentrating":"4","graderange":"K-8","enrollment":"349","lat":"37.727272","lon":"-122.239456","city":"Alameda","website":"","phone":"(510) 522-0200"}
{"_id":{"$oid":"5af7493818e4261b6296a920"},"school_name":"Da Vinci Center For Gifted Children","school_type":"private","gsrating":"NA","parentrating":"5","graderange":"K-6","enrollment":"NA","lat":"37.77234","lon":"-122.282875","city":"Alameda","website":"","phone":"(510) 219-9410"}
{"_id":{"$oid":"5af7493818e4261b6296a921"},"school_name":"Donald D. Lum Elementary School","school_type":"public","gsrating":"9","parentrating":"4","graderange":"K-5","enrollment":"519","lat":"37.762207","lon":"-122.25898","city":"Alameda","website":"http://www.alameda.k12.ca.us","phone":"(510) 748-4009"}
{"_id":{"$oid":"5af7493818e4261b6296a922"},"school_name":"East Bay Regional Occupation Center/Agency (Roc/P)","school_type":"public","gsrating":"NA","parentrating":"4","graderange":"9-12","enrollment":"NA","lat":"37.778625","lon":"-122.28792","city":"Alameda","website":"","phone":"(510) 879-3037"}
{"_id":{"$oid":"5af7493818e4261b6296a923"},"school_name":"Edison Elementary School","school_type":"public","gsrating":"9","parentrating":"4","graderange":"K-5","enrollment":"486","lat":"37.76444","lon":"-122.23476","city":"Alameda","website":"http://www.schoolsrock.com","phone":"(510) 748-4002"}
{"_id":{"$oid":"5af7493818e4261b6296a924"},"school_name":"Encinal Junior Jets","school_type":"public","gsrating":"NA","parentrating":"5","graderange":"6-8","enrollment":"229","lat":"37.772766","lon":"-122.28901","city":"Alameda","website":"","phone":"(510) 337-7027"}
{"_id":{"$oid":"5af7493818e4261b6296a925"},"school_name":"Encinal Junior/Senior High","school_type":"public","gsrating":"6","parentrating":"4","graderange":"6-12","enrollment":"NA","lat":"37.772766","lon":"-122.28901","city":"Alameda","website":"http://ehs.alamedausd.ca.schoolloop.com/","phone":"(510) 748-4023"}
{"_id":{"$oid":"5af7493818e4261b6296a926"},"school_name":"Frank Otis Elementary School","school_type":"public","gsrating":"8","parentrating":"4","graderange":"K-5","enrollment":"588","lat":"37.754044","lon":"-122.23798","city":"Alameda","website":"http://www.alameda.k12.ca.us.gov","phone":"(510) 748-4013"}
{"_id":{"$oid":"5af7493818e4261b6296a927"},"school_name":"Franklin Elementary School","school_type":"public","gsrating":"8","parentrating":"5","graderange":"K-5","enrollment":"326","lat":"37.769012","lon":"-122.26162","city":"Alameda","website":"https://franklin-alamedausd-ca.schoolloop.com/","phone":"(510) 748-4004"}
{"_id":{"$oid":"5af7493818e4261b6296a928"},"school_name":"Henry Haight Elementary School","school_type":"public","gsrating":"6","parentrating":"3","graderange":"K-5","enrollment":"452","lat":"37.769707","lon":"-122.25081","city":"Alameda","website":"http://www.alameda.k12","phone":"(510) 748-4005"}
{"_id":{"$oid":"5af7493818e4261b6296a929"},"school_name":"Island High (Continuation) School","school_type":"public","gsrating":"NA","parentrating":"4","graderange":"9-12","enrollment":"144","lat":"37.786892","lon":"-122.28588","city":"Alameda","website":"http://ihs.alamedausd.ca.schoolloop.com/","phone":"(510) 748-4024"}
{"_id":{"$oid":"5af7493818e4261b6296a92a"},"school_name":"Lincoln Middle School","school_type":"public","gsrating":"9","parentrating":"4","graderange":"6-8","enrollment":"900","lat":"37.75182","lon":"-122.23215","city":"Alameda","website":"http://lms.alamedausd.ca.schoolloop.com/","phone":"(510) 748-4018"}
{"_id":{"$oid":"5af7493918e4261b6296a92b"},"school_name":"Maya Lin School","school_type":"public","gsrating":"5","parentrating":"5","graderange":"K-8","enrollment":"321","lat":"37.772636","lon":"-122.27143","city":"Alameda","website":"www.alameda.k12.ca.us/","phone":"(510) 337-7027"}
{"_id":{"$oid":"5af7493918e4261b6296a92c"},"school_name":"Nea Community Learning Center School","school_type":"charter","gsrating":"5","parentrating":"4","graderange":"K-12","enrollment":"530","lat":"37.779053","lon":"-122.28703","city":"Alameda","website":"www.neaclc.org","phone":"(510) 748-4008"}
{"_id":{"$oid":"5af7493918e4261b6296a92d"},"school_name":"Peter Pan Academy","school_type":"private","gsrating":"NA","parentrating":"3","graderange":"K-2","enrollment":"19","lat":"37.738087","lon":"-122.24237","city":"Alameda","website":"http://www.peterpanschools.com/peteracademy/peteracademy_index.html","phone":"(510) 521-2711"}
{"_id":{"$oid":"5af7493918e4261b6296a92e"},"school_name":"Peter Pan Academy","school_type":"private","gsrating":"NA","parentrating":"4","graderange":"K-3","enrollment":"NA","lat":"37.784492","lon":"-122.275764","city":"Alameda","website":"","phone":"(510) 523-5050"}
{"_id":{"$oid":"5af7493918e4261b6296a92f"},"school_name":"Rising Star Montessori School","school_type":"private","gsrating":"NA","parentrating":"4","graderange":"PK-5","enrollment":"160","lat":"37.75891","lon":"-122.23161","city":"Alameda","website":"http://www.risingstarschool.org","phone":"(510) 865-4536"}
{"_id":{"$oid":"5af7493918e4261b6296a930"},"school_name":"Ruby Bridges Elementary School","school_type":"public","gsrating":"4","parentrating":"5","graderange":"K-5","enrollment":"600","lat":"37.781807","lon":"-122.28614","city":"Alameda","website":"http://rubybridges.alamedausd.ca.schoolloop.com/","phone":"(510) 748-4006"}
{"_id":{"$oid":"5af7493918e4261b6296a931"},"school_name":"Saint Joseph Notre Dame High School","school_type":"private","gsrating":"NA","parentrating":"4","graderange":"9-12","enrollment":"443","lat":"37.765614","lon":"-122.25512","city":"Alameda","website":"http://sjnd.org","phone":"(510) 523-1526"}
{"_id":{"$oid":"5af7493918e4261b6296a932"},"school_name":"St. Joseph Elementary School","school_type":"private","gsrating":"NA","parentrating":"4","graderange":"K-8","enrollment":"240","lat":"37.76608","lon":"-122.25502","city":"Alameda","website":"http://www.stjosephalameda.org","phone":"(510) 522-4456"}
{"_id":{"$oid":"5af7493918e4261b6296a933"},"school_name":"St. Philip Neri Elementary School","school_type":"private","gsrating":"NA","parentrating":"4","graderange":"PK-8","enrollment":"228","lat":"37.757187","lon":"-122.23314","city":"Alameda","website":"","phone":"(510) 521-0787"}
{"_id":{"$oid":"5af7493918e4261b6296a934"},"school_name":"The Academy Of Alameda","school_type":"charter","gsrating":"7","parentrating":"5","graderange":"6-8","enrollment":"508","lat":"37.77693","lon":"-122.285286","city":"Alameda","website":"http://aoaschools.org/","phone":"(510) 748-4017"}
{"_id":{"$oid":"5af7493918e4261b6296a935"},"school_name":"The Academy Of Alameda Elementary","school_type":"charter","gsrating":"NA","parentrating":"5","graderange":"K-5","enrollment":"NA","lat":"37.77693","lon":"-122.285286","city":"Alameda","website":"www.aoaschools.org","phone":"(510) 748-4017"}
{"_id":{"$oid":"5af7493918e4261b6296a936"},"school_name":"The Child Unique Montessori School","school_type":"private","gsrating":"NA","parentrating":"4","graderange":"K-5","enrollment":"NA","lat":"37.763783","lon":"-122.247086","city":"Alameda","website":"","phone":"(510) 521-9227"}
{"_id":{"$oid":"5af7493918e4261b6296a937"},"school_name":"Will C. Wood Middle School","school_type":"public","gsrating":"6","parentrating":"4","graderange":"6-8","enrollment":"439","lat":"37.763042","lon":"-122.26195","city":"Alameda","website":"http://www.wood.k12.ca.us","phone":"(510) 748-4015"}
{"_id":{"$oid":"5af7493918e4261b6296a938"},"school_name":"William G. Paden Elementary School","school_type":"public","gsrating":"6","parentrating":"4","graderange":"K-5","enrollment":"316","lat":"37.771595","lon":"-122.28446","city":"Alameda","website":"https://paden-alamedausd-ca.schoolloop.com/","phone":"(510) 748-4014"}
{"_id":{"$oid":"5af7493918e4261b6296a939"},"school_name":"Albany High School","school_type":"public","gsrating":"10","parentrating":"4","graderange":"9-12","enrollment":"1195","lat":"37.89666","lon":"-122.2926","city":"Albany","website":"http://ahs.ausdk12.org/","phone":"(510) 558-2500"}
{"_id":{"$oid":"5af7493918e4261b6296a93a"},"school_name":"Albany Middle School","school_type":"public","gsrating":"10","parentrating":"4","graderange":"6-8","enrollment":"868","lat":"37.897823","lon":"-122.29531","city":"Albany","website":"http://ams.ausdk12.org/","phone":"(510) 558-3600"}
{"_id":{"$oid":"5af7493918e4261b6296a93b"},"school_name":"Cornell Elementary School","school_type":"public","gsrating":"9","parentrating":"4","graderange":"K-5","enrollment":"570","lat":"37.88983","lon":"-122.29515","city":"Albany","website":"http://cornell.ausdk12.org/","phone":"(510) 558-3700"}
{"_id":{"$oid":"5af7493918e4261b6296a93c"},"school_name":"Macgregor High (Continuation) School","school_type":"public","gsrating":"NA","parentrating":"2","graderange":"10-12","enrollment":"27","lat":"37.893272","lon":"-122.30274","city":"Albany","website":"","phone":"(510) 559-6570"}
{"_id":{"$oid":"5af7493918e4261b6296a93d"},"school_name":"Marin Elementary School","school_type":"public","gsrating":"10","parentrating":"4","graderange":"K-5","enrollment":"499","lat":"37.88864","lon":"-122.28821","city":"Albany","website":"marin.ausdk12.org","phone":"(510) 558-4740"}
{"_id":{"$oid":"5af7493918e4261b6296a93e"},"school_name":"Ocean View Elementary School","school_type":"public","gsrating":"9","parentrating":"5","graderange":"K-5","enrollment":"697","lat":"37.887543","lon":"-122.30089","city":"Albany","website":"http://ov.ausdk12.org/","phone":"(510) 558-4800"}
{"_id":{"$oid":"5af7493918e4261b6296a93f"},"school_name":"Tilden Preparatory School","school_type":"private","gsrating":"NA","parentrating":"5","graderange":"6-12 \u0026 ungraded","enrollment":"120","lat":"37.890675","lon":"-122.294975","city":"Albany","website":"http://www.tildenprep.com/index.php","phone":"(510) 525-5506"}
{"_id":{"$oid":"5af7493918e4261b6296a940"},"school_name":"Alhambra High School","school_type":"public","gsrating":"8","parentrating":"4","graderange":"9-12","enrollment":"2726","lat":"34.095024","lon":"-118.13027","city":"Alhambra","website":"www.ausd.us","phone":"(626) 943-6910"}
{"_id":{"$oid":"5af7493918e4261b6296a941"},"school_name":"All Souls Elementary School","school_type":"private","gsrating":"NA","parentrating":"4","graderange":"PK-4","enrollment":"230","lat":"34.090637","lon":"-118.140495","city":"Alhambra","website":"www.allsoulsla.org","phone":"(626) 282-5695"}
{"_id":{"$oid":"5af7493918e4261b6296a942"},"school_name":"Bell Tower Trilingual School","school_type":"private","gsrating":"NA","parentrating":"4","graderange":"PK-5","enrollment":"104","lat":"34.09457","lon":"-118.15858","city":"Alhambra","website":"www.belltowerschool.com","phone":"(626) 943-9970"}
{"_id":{"$oid":"5af7493918e4261b6296a943"},"school_name":"Century High School","school_type":"public","gsrating":"NA","parentrating":"4","graderange":"9-12","enrollment":"173","lat":"34.091236","lon":"-118.14198","city":"Alhambra","website":"www.ausd.us","phone":"(626) 943-6680"}
{"_id":{"$oid":"5af7493918e4261b6296a944"},"school_name":"Emery Park Elementary School","school_type":"public","gsrating":"7","parentrating":"4","graderange":"K-8","enrollment":"488","lat":"34.08779","lon":"-118.15435","city":"Alhambra","website":"www.ausd.us","phone":"(626) 943-3340"}
{"_id":{"$oid":"5af7493918e4261b6296a945"},"school_name":"Emmaus Lutheran","school_type":"private","gsrating":"NA","parentrating":"4","graderange":"K-8","enrollment":"166","lat":"34.08633","lon":"-118.115654","city":"Alhambra","website":"","phone":"(626) 289-3664"}
{"_id":{"$oid":"5af7493918e4261b6296a946"},"school_name":"First Presbyterian School","school_type":"private","gsrating":"NA","parentrating":"4","graderange":"9-12","enrollment":"58","lat":"34.090057","lon":"-118.13523","city":"Alhambra","website":"","phone":"(626) 282-9936"}
{"_id":{"$oid":"5af7493918e4261b6296a947"},"school_name":"First Presbyterian School","school_type":"private","gsrating":"NA","parentrating":"4","graderange":"9-12","enrollment":"NA","lat":"34.090057","lon":"-118.13523","city":"Alhambra","website":"","phone":"(626) 282-9936"}
{"_id":{"$oid":"5af7493918e4261b6296a948"},"school_name":"Fremont Elementary School","school_type":"public","gsrating":"6","parentrating":"4","graderange":"K-8","enrollment":"587","lat":"34.071213","lon":"-118.15048","city":"Alhambra","website":"www.ausd.us","phone":"(626) 308-2411"}
{"_id":{"$oid":"5af7493918e4261b6296a949"},"school_name":"Garfield Elementary School","school_type":"public","gsrating":"7","parentrating":"3","graderange":"K-8","enrollment":"644","lat":"34.101524","lon":"-118.13289","city":"Alhambra","website":"www.ausd.us","phone":"(626) 308-2415"}
{"_id":{"$oid":"5af7493918e4261b6296a94a"},"school_name":"Granada Elementary School","school_type":"public","gsrating":"5","parentrating":"4","graderange":"K-8","enrollment":"488","lat":"34.100815","lon":"-118.11832","city":"Alhambra","website":"www.ausd.us","phone":"(626) 308-2419"}
{"_id":{"$oid":"5af7493918e4261b6296a94b"},"school_name":"Independence High (Alternative) School","school_type":"public","gsrating":"NA","parentrating":"4","graderange":"9-12","enrollment":"87","lat":"34.091236","lon":"-118.14198","city":"Alhambra","website":"www.ausd.us","phone":"(626) 943-6681"}
{"_id":{"$oid":"5af7493918e4261b6296a94c"},"school_name":"Leeway School","school_type":"private","gsrating":"NA","parentrating":"5","graderange":"K-12","enrollment":"100","lat":"34.098232","lon":"-118.12192","city":"Alhambra","website":"","phone":"(626) 308-4521"}
{"_id":{"$oid":"5af7493918e4261b6296a94d"},"school_name":"Lily's Garden Preschool And Kindergarten","school_type":"private","gsrating":"NA","parentrating":"1","graderange":"K","enrollment":"171","lat":"34.08967","lon":"-118.1194","city":"Alhambra","website":"","phone":"(626) 282-9736"}
{"_id":{"$oid":"5af7493918e4261b6296a94e"},"school_name":"Marguerita Elementary School","school_type":"public","gsrating":"7","parentrating":"4","graderange":"K-8","enrollment":"578","lat":"34.07568","lon":"-118.13823","city":"Alhambra","website":"www.ausd.us","phone":"(626) 308-2423"}
{"_id":{"$oid":"5af7493918e4261b6296a94f"},"school_name":"Mark Keppel High School","school_type":"public","gsrating":"10","parentrating":"4","graderange":"9-12","enrollment":"2306","lat":"34.06984","lon":"-118.11535","city":"Alhambra","website":"www.ausd.us","phone":"(626) 943-6710"}
{"_id":{"$oid":"5af7493918e4261b6296a950"},"school_name":"Martha Baldwin Elementary School","school_type":"public","gsrating":"8","parentrating":"4","graderange":"K-8","enrollment":"1134","lat":"34.106426","lon":"-118.12707","city":"Alhambra","website":"www.ausd.us","phone":"(626) 308-2400"}
{"_id":{"$oid":"5af7493918e4261b6296a951"},"school_name":"Oneonta Montessori School","school_type":"private","gsrating":"NA","parentrating":"4","graderange":"PK-6","enrollment":"215","lat":"34.09195","lon":"-118.14818","city":"Alhambra","website":"www.oneontamontesssori.com","phone":"(626) 284-0840"}
{"_id":{"$oid":"5af7493918e4261b6296a952"},"school_name":"Park Elementary School","school_type":"public","gsrating":"8","parentrating":"4","graderange":"K-8","enrollment":"757","lat":"34.095253","lon":"-118.14209","city":"Alhambra","website":"www.ausd.us","phone":"(626) 308-2435"}
{"_id":{"$oid":"5af7493918e4261b6296a953"},"school_name":"Ramona Convent Secondary School","school_type":"private","gsrating":"NA","parentrating":"4","graderange":"9-12","enrollment":"300","lat":"34.07309","lon":"-118.13994","city":"Alhambra","website":"http://www.ramonaconvent.org/","phone":"(626) 282-4151"}
{"_id":{"$oid":"5af7493918e4261b6296a954"},"school_name":"Ramona Elementary School","school_type":"public","gsrating":"8","parentrating":"4","graderange":"K-8","enrollment":"869","lat":"34.076015","lon":"-118.12815","city":"Alhambra","website":"www.ausd.us","phone":"(626) 943-3660"}
{"_id":{"$oid":"5af7493918e4261b6296a955"},"school_name":"Saint Therese Carmelite School","school_type":"private","gsrating":"NA","parentrating":"3","graderange":"K-8","enrollment":"100","lat":"34.10595","lon":"-118.11885","city":"Alhambra","website":"https://sainttheresecarmeliteschool.com/","phone":"(626) 289-3364"}
{"_id":{"$oid":"5af7493918e4261b6296a956"},"school_name":"St. Thomas More Catholic Elementary School","school_type":"private","gsrating":"NA","parentrating":"4","graderange":"K-8","enrollment":"229","lat":"34.063595","lon":"-118.14717","city":"Alhambra","website":"","phone":"(626) 284-5778"}
{"_id":{"$oid":"5af7493918e4261b6296a957"},"school_name":"William Northrup Elementary School","school_type":"public","gsrating":"6","parentrating":"4","graderange":"K-8","enrollment":"694","lat":"34.096806","lon":"-118.13503","city":"Alhambra","website":"www.ausd.us","phone":"(626) 943-6620"}
{"_id":{"$oid":"5af7493918e4261b6296a958"},"school_name":"Academy On The Hills","school_type":"private","gsrating":"NA","parentrating":"4","graderange":"K-1","enrollment":"165","lat":"33.572662","lon":"-117.7034","city":"Aliso Viejo","website":"http://academyonthehills.com/","phone":"(949) 360-7022"}
{"_id":{"$oid":"5af7493918e4261b6296a959"},"school_name":"Aliso Niguel High School","school_type":"public","gsrating":"9","parentrating":"4","graderange":"9-12","enrollment":"3036","lat":"33.561375","lon":"-117.72091","city":"Aliso Viejo","website":"http://anhs-capousd-ca.schoolloop.com/","phone":"(949) 831-5590"}
{"_id":{"$oid":"5af7493918e4261b6296a95a"},"school_name":"Aliso Viejo Christian","school_type":"private","gsrating":"NA","parentrating":"4","graderange":"K-8","enrollment":"374","lat":"33.557636","lon":"-117.72732","city":"Aliso Viejo","website":"","phone":"(949) 389-0300"}
{"_id":{"$oid":"5af7493918e4261b6296a95b"},"school_name":"Aliso Viejo Middle School","school_type":"public","gsrating":"8","parentrating":"4","graderange":"6-8","enrollment":"1086","lat":"33.580547","lon":"-117.71299","city":"Aliso Viejo","website":"https://avms-capousd-ca.schoolloop.com/","phone":"(949) 831-2622"}
{"_id":{"$oid":"5af7493918e4261b6296a95c"},"school_name":"Canyon Vista Elementary School","school_type":"public","gsrating":"7","parentrating":"4","graderange":"K-5","enrollment":"715","lat":"33.56177","lon":"-117.73628","city":"Aliso Viejo","website":"http://www.capousd.org/cves","phone":"(949) 234-5941"}
{"_id":{"$oid":"5af7493918e4261b6296a95d"},"school_name":"Crosswalk Academy","school_type":"private","gsrating":"NA","parentrating":"4","graderange":"1-12","enrollment":"NA","lat":"33.596035","lon":"-117.723816","city":"Aliso Viejo","website":"","phone":"(949) 786-0072"}
{"_id":{"$oid":"5af7493918e4261b6296a95e"},"school_name":"Don Juan Avila Elementary School","school_type":"public","gsrating":"8","parentrating":"4","graderange":"K-5","enrollment":"789","lat":"33.58132","lon":"-117.73441","city":"Aliso Viejo","website":"https://djaes-capousd-ca.schoolloop.com/","phone":"(949) 349-9452"}
{"_id":{"$oid":"5af7493918e4261b6296a95f"},"school_name":"Don Juan Avila Middle School","school_type":"public","gsrating":"9","parentrating":"4","graderange":"6-8","enrollment":"1236","lat":"33.58132","lon":"-117.73441","city":"Aliso Viejo","website":"http://djams.capousd.ca.schoolloop.com/","phone":"(949) 362-0348"}
{"_id":{"$oid":"5af7493918e4261b6296a960"},"school_name":"Farm School","school_type":"private","gsrating":"NA","parentrating":"4","graderange":"K-6","enrollment":"NA","lat":"33.564987","lon":"-117.72876","city":"Aliso Viejo","website":"","phone":"(949) 241-4175"}
{"_id":{"$oid":"5af7493918e4261b6296a961"},"school_name":"Journey School","school_type":"charter","gsrating":"8","parentrating":"4","graderange":"K-8","enrollment":"400","lat":"33.55354","lon":"-117.72197","city":"Aliso Viejo","website":"http://www.journeyschool.net","phone":"(949) 448-7232"}
{"_id":{"$oid":"5af7493918e4261b6296a962"},"school_name":"Oak Grove Elementary School","school_type":"public","gsrating":"9","parentrating":"4","graderange":"K-5","enrollment":"739","lat":"33.575146","lon":"-117.73539","city":"Aliso Viejo","website":"https://oges-capousd-ca.schoolloop.com/","phone":"(949) 360-9001"}
{"_id":{"$oid":"5af7493918e4261b6296a963"},"school_name":"Ocean View School","school_type":"private","gsrating":"NA","parentrating":"4","graderange":"3-12","enrollment":"NA","lat":"33.60594","lon":"-117.721756","city":"Aliso Viejo","website":"https://www.oceanviewnps.com/","phone":"(949) 855-0408"}
{"_id":{"$oid":"5af7493918e4261b6296a964"},"school_name":"St. Mary's School","school_type":"private","gsrating":"NA","parentrating":"4","graderange":"PK-8","enrollment":"730","lat":"33.553913","lon":"-117.724945","city":"Aliso Viejo","website":"http://www.smaa.org","phone":"(949) 448-9027"}
{"_id":{"$oid":"5af7493918e4261b6296a965"},"school_name":"The Discovery Preparatory School","school_type":"private","gsrating":"NA","parentrating":"4","graderange":"6-12","enrollment":"12","lat":"33.56497","lon":"-117.7285","city":"Aliso Viejo","website":"www.discoveryprepschool.com","phone":"(949) 939-8320"}
{"_id":{"$oid":"5af7493918e4261b6296a966"},"school_name":"Vandamme Academy","school_type":"private","gsrating":"NA","parentrating":"4","graderange":"K-8","enrollment":"134","lat":"33.564987","lon":"-117.72876","city":"Aliso Viejo","website":"http://www.vandammeacademy.com","phone":"(949) 510-4861"}
{"_id":{"$oid":"5af7493918e4261b6296a967"},"school_name":"Wood Canyon Elementary School","school_type":"public","gsrating":"5","parentrating":"4","graderange":"PK-5","enrollment":"464","lat":"33.55452","lon":"-117.72076","city":"Aliso Viejo","website":"https://wces-capousd-ca.schoolloop.com/","phone":"(949) 448-0012"}
{"_id":{"$oid":"5af7493918e4261b6296a968"},"school_name":"Alturas Community Day School","school_type":"public","gsrating":"NA","parentrating":"4","graderange":"K-6","enrollment":"NA","lat":"41.491028","lon":"-120.53996","city":"Alturas","website":"","phone":"(530) 233-7201"}
{"_id":{"$oid":"5af7493918e4261b6296a969"},"school_name":"Alturas Elementary School","school_type":"public","gsrating":"2","parentrating":"4","graderange":"K-5","enrollment":"378","lat":"41.4909","lon":"-120.55312","city":"Alturas","website":"http://www.modoc.k12.ca.us/","phone":"(530) 233-7201"}
{"_id":{"$oid":"5af7493918e4261b6296a96a"},"school_name":"Alturas Mennonite School","school_type":"private","gsrating":"NA","parentrating":"4","graderange":"1-8","enrollment":"15","lat":"41.49094","lon":"-120.5497","city":"Alturas","website":"","phone":"(530) 640-0828"}
{"_id":{"$oid":"5af7493918e4261b6296a96b"},"school_name":"High Desert Community Day School","school_type":"public","gsrating":"NA","parentrating":"3","graderange":"6-10","enrollment":"5","lat":"41.491028","lon":"-120.53996","city":"Alturas","website":"","phone":"(530) 233-7201"}
{"_id":{"$oid":"5af7493918e4261b6296a96c"},"school_name":"Modoc County Community - Alturas School","school_type":"public","gsrating":"NA","parentrating":"3","graderange":"K-12","enrollment":"NA","lat":"41.48734","lon":"-120.55774","city":"Alturas","website":"","phone":"(530) 233-7103"}
{"_id":{"$oid":"5af7493918e4261b6296a96d"},"school_name":"Modoc County Rop School","school_type":"public","gsrating":"NA","parentrating":"3","graderange":"9-12","enrollment":"NA","lat":"41.4808","lon":"-120.54388","city":"Alturas","website":"www.modoccoe.k12.ca.us","phone":"(530) 233-7102"}
{"_id":{"$oid":"5af7493918e4261b6296a96e"},"school_name":"Modoc County Special Education School","school_type":"public","gsrating":"3","parentrating":"1","graderange":"PK-12","enrollment":"17","lat":"41.4808","lon":"-120.54388","city":"Alturas","website":"http://modoccoe.k12.ca.us","phone":"(530) 233-7110"}
{"_id":{"$oid":"5af7493918e4261b6296a96f"},"school_name":"Modoc High School","school_type":"public","gsrating":"4","parentrating":"5","graderange":"9-12","enrollment":"220","lat":"41.49173","lon":"-120.54251","city":"Alturas","website":"www.modoc.k12.ca.us","phone":"(530) 233-7201"}
{"_id":{"$oid":"5af7493918e4261b6296a970"},"school_name":"Modoc Middle School","school_type":"public","gsrating":"NA","parentrating":"5","graderange":"6-8","enrollment":"199","lat":"41.48733","lon":"-120.55463","city":"Alturas","website":"","phone":"(530) 233-7201"}
{"_id":{"$oid":"5af7493918e4261b6296a971"},"school_name":"Warner High School","school_type":"public","gsrating":"NA","parentrating":"5","graderange":"9-12","enrollment":"6","lat":"41.491028","lon":"-120.53996","city":"Alturas","website":"","phone":"(530) 233-7201"}
{"_id":{"$oid":"5af7493a18e4261b6296a972"},"school_name":"American Canyon High School","school_type":"public","gsrating":"7","parentrating":"3","graderange":"9-12","enrollment":"1551","lat":"38.166378","lon":"-122.23873","city":"American Canyon","website":"www.nvusd.org","phone":"(707) 265-2710"}
{"_id":{"$oid":"5af7493a18e4261b6296a973"},"school_name":"American Canyon Middle School","school_type":"public","gsrating":"6","parentrating":"4","graderange":"6-8","enrollment":"1058","lat":"38.16986","lon":"-122.26705","city":"American Canyon","website":"www.acms.nvusd.org","phone":"(707) 259-8592"}
{"_id":{"$oid":"5af7493a18e4261b6296a974"},"school_name":"Archways Community Day School","school_type":"public","gsrating":"NA","parentrating":"5","graderange":"6-8","enrollment":"NA","lat":"38.170563","lon":"-122.26529","city":"American Canyon","website":"","phone":"(707) 259-8592"}
{"_id":{"$oid":"5af7493a18e4261b6296a975"},"school_name":"Calvary Baptist Christian Academy","school_type":"private","gsrating":"NA","parentrating":"5","graderange":"K-12","enrollment":"47","lat":"38.18418","lon":"-122.2586","city":"American Canyon","website":"","phone":"(707) 642-1143"}
{"_id":{"$oid":"5af7493a18e4261b6296a976"},"school_name":"Calvary Baptist Christian Academy","school_type":"private","gsrating":"NA","parentrating":"3","graderange":"K-12","enrollment":"60","lat":"38.18418","lon":"-122.2586","city":"American Canyon","website":"www.cbcac.org","phone":"(707) 642-1143"}
{"_id":{"$oid":"5af7493a18e4261b6296a977"},"school_name":"Canyon Oaks Elementary School","school_type":"public","gsrating":"7","parentrating":"5","graderange":"K-5","enrollment":"720","lat":"38.1684","lon":"-122.2463","city":"American Canyon","website":"www.coes.nvusd.org","phone":"(707) 265-2363"}
{"_id":{"$oid":"5af7493a18e4261b6296a978"},"school_name":"Donaldson Way Elementary School","school_type":"public","gsrating":"6","parentrating":"4","graderange":"K-5","enrollment":"635","lat":"38.17116","lon":"-122.26214","city":"American Canyon","website":"www.dwes.nvusd.org","phone":"(707) 644-4486"}
{"_id":{"$oid":"5af7493a18e4261b6296a979"},"school_name":"Legacy High","school_type":"public","gsrating":"NA","parentrating":"4","graderange":"9-12","enrollment":"18","lat":"38.166824","lon":"-122.238014","city":"American Canyon","website":"www.nvusd.org","phone":"(707) 265-2710"}
{"_id":{"$oid":"5af7493a18e4261b6296a97a"},"school_name":"Napa Junction Elementary School","school_type":"public","gsrating":"4","parentrating":"4","graderange":"PK-5","enrollment":"467","lat":"38.184937","lon":"-122.25764","city":"American Canyon","website":"www.njes.nvusd.org","phone":"(707) 644-0050"}
{"_id":{"$oid":"5af7493a18e4261b6296a97b"},"school_name":"Napa Valley Montessori","school_type":"private","gsrating":"NA","parentrating":"4","graderange":"PK-6","enrollment":"50","lat":"38.16676","lon":"-122.25502","city":"American Canyon","website":"www.napavalleymontessori.com","phone":"(707) 647-7178"}
{"_id":{"$oid":"5af7493a18e4261b6296a97c"},"school_name":"Acaciawood School, Inc.","school_type":"private","gsrating":"NA","parentrating":"3","graderange":"1-12","enrollment":"119","lat":"33.846375","lon":"-117.97349","city":"Anaheim","website":"http://www.awschool.org","phone":"(714) 995-1800"}
{"_id":{"$oid":"5af7493a18e4261b6296a97d"},"school_name":"Adventure Schooling","school_type":"private","gsrating":"NA","parentrating":"3","graderange":"1-12","enrollment":"NA","lat":"33.833103","lon":"-117.9785","city":"Anaheim","website":"","phone":"(951) 229-8272"}
{"_id":{"$oid":"5af7493a18e4261b6296a97e"},"school_name":"Al-Ansar Academy","school_type":"private","gsrating":"NA","parentrating":"3","graderange":"K-8","enrollment":"NA","lat":"33.805477","lon":"-117.9595","city":"Anaheim","website":"","phone":"(714) 535-6981"}
{"_id":{"$oid":"5af7493a18e4261b6296a97f"},"school_name":"Albert Schweitzer Elementary School","school_type":"public","gsrating":"7","parentrating":"4","graderange":"K-6","enrollment":"635","lat":"33.82912","lon":"-117.986","city":"Anaheim","website":"www.magnoliasd.org","phone":"(714) 527-7761"}
{"_id":{"$oid":"5af7493a18e4261b6296a980"},"school_name":"Amaanah Montessori School","school_type":"private","gsrating":"NA","parentrating":"4","graderange":"K-5","enrollment":"NA","lat":"33.814857","lon":"-117.95922","city":"Anaheim","website":"","phone":"(714) 991-8961"}
{"_id":{"$oid":"5af7493a18e4261b6296a981"},"school_name":"AmeriMont Academy","school_type":"private","gsrating":"NA","parentrating":"4","graderange":"PK-6","enrollment":"24","lat":"33.864918","lon":"-117.74153","city":"Anaheim Hills","website":"www.amerimontacademy.com","phone":"(714) 855-3329"}
{"_id":{"$oid":"5af7493a18e4261b6296a982"},"school_name":"Anaheim Discovery Christian Jr./Sr. High School","school_type":"private","gsrating":"NA","parentrating":"4","graderange":"7-12","enrollment":"NA","lat":"33.83669","lon":"-117.89867","city":"Anaheim","website":"","phone":"(714) 535-2535"}
{"_id":{"$oid":"5af7493a18e4261b6296a983"},"school_name":"Anaheim Discovery Christian Junior","school_type":"private","gsrating":"NA","parentrating":"4","graderange":"6-12","enrollment":"NA","lat":"33.84082","lon":"-117.96623","city":"Anaheim","website":"","phone":"(714) 535-2535"}
{"_id":{"$oid":"5af7493a18e4261b6296a984"},"school_name":"Anaheim High School","school_type":"public","gsrating":"4","parentrating":"4","graderange":"9-12","enrollment":"3206","lat":"33.833637","lon":"-117.92419","city":"Anaheim","website":"http://anaheim.auhsd.k12.ca.us","phone":"(714) 999-3717"}
{"_id":{"$oid":"5af7493a18e4261b6296a985"},"school_name":"Anaheim Hills Elementary School","school_type":"public","gsrating":"9","parentrating":"4","graderange":"K-6","enrollment":"513","lat":"33.829754","lon":"-117.76213","city":"Anaheim","website":"www.orangeusd.k12.ca.us/schools/elementary/anaheimhills/index.asp","phone":"(714) 997-6169"}
{"_id":{"$oid":"5af7493a18e4261b6296a986"},"school_name":"Anaheim Hills Montessori School","school_type":"private","gsrating":"NA","parentrating":"4","graderange":"K-6","enrollment":"NA","lat":"33.85603","lon":"-117.77214","city":"Anaheim","website":"","phone":"(714) 283-5858"}
{"_id":{"$oid":"5af7493a18e4261b6296a987"},"school_name":"Anaheim Magnolia Christian School","school_type":"private","gsrating":"NA","parentrating":"4","graderange":"1-12","enrollment":"NA","lat":"33.822052","lon":"-117.975494","city":"Anaheim","website":"","phone":"(714) 871-4635"}
{"_id":{"$oid":"5af7493a18e4261b6296a988"},"school_name":"Apple Tree Preschool","school_type":"private","gsrating":"NA","parentrating":"4","graderange":"PK-5","enrollment":"NA","lat":"33.8361","lon":"-117.95969","city":"Anaheim","website":"","phone":"(714) 772-1005"}
{"_id":{"$oid":"5af7493a18e4261b6296a989"},"school_name":"Baden-Powell Elementary School","school_type":"public","gsrating":"6","parentrating":"4","graderange":"K-6","enrollment":"734","lat":"33.82147","lon":"-117.99232","city":"Anaheim","website":"www.magnoliasd.org","phone":"(714) 761-5442"}
{"_id":{"$oid":"5af7493a18e4261b6296a98a"},"school_name":"Ball Junior High School","school_type":"public","gsrating":"2","parentrating":"3","graderange":"7-8","enrollment":"1060","lat":"33.81719","lon":"-117.93391","city":"Anaheim","website":"balljhs.org","phone":"(714) 999-3663"}
{"_id":{"$oid":"5af7493a18e4261b6296a98b"},"school_name":"Barton (Clara) Elementary School","school_type":"public","gsrating":"3","parentrating":"3","graderange":"K-6","enrollment":"713","lat":"33.82296","lon":"-117.95148","city":"Anaheim","website":"","phone":"(714) 517-8900"}
{"_id":{"$oid":"5af7493a18e4261b6296a98c"},"school_name":"Berean Christian Academy","school_type":"private","gsrating":"NA","parentrating":"5","graderange":"1-12","enrollment":"NA","lat":"33.8601","lon":"-117.817444","city":"Anaheim","website":"","phone":"(714) 578-0238"}
{"_id":{"$oid":"5af7493a18e4261b6296a98d"},"school_name":"Brookhurst Junior High School","school_type":"public","gsrating":"4","parentrating":"4","graderange":"7-8","enrollment":"1193","lat":"33.8411","lon":"-117.96022","city":"Anaheim","website":"http://brookhurst.org","phone":"(714) 999-3613"}
{"_id":{"$oid":"5af7493a18e4261b6296a98e"},"school_name":"Calvary Baptist Church Preschool and Kindergarten","school_type":"private","gsrating":"NA","parentrating":"5","graderange":"K","enrollment":"NA","lat":"33.8252","lon":"-117.8721","city":"Anaheim","website":"","phone":"(714) 630-6670"}
{"_id":{"$oid":"5af7493a18e4261b6296a98f"},"school_name":"Calvary Chapel Anaheim School","school_type":"private","gsrating":"NA","parentrating":"4","graderange":"PK-8","enrollment":"82","lat":"33.81314","lon":"-117.90385","city":"Anaheim","website":"www.ccanaheimschool.com","phone":"(714) 563-9620"}
{"_id":{"$oid":"5af7493a18e4261b6296a990"},"school_name":"Canyon High School","school_type":"public","gsrating":"8","parentrating":"4","graderange":"9-12","enrollment":"2338","lat":"33.84791","lon":"-117.79003","city":"Anaheim","website":"www.orangeusd.k12.ca.us/schools/high/canyon/index.asp","phone":"(714) 532-8000"}
{"_id":{"$oid":"5af7493a18e4261b6296a991"},"school_name":"Canyon Hills School","school_type":"public","gsrating":"NA","parentrating":"1","graderange":"K-12","enrollment":"141","lat":"33.84759","lon":"-117.79003","city":"Anaheim","website":"www.orangeusd.k12.ca.us/schools/special/canyonhills/index.asp","phone":"(714) 997-6171"}
{"_id":{"$oid":"5af7493a18e4261b6296a992"},"school_name":"Canyon Montessori Center","school_type":"private","gsrating":"NA","parentrating":"2","graderange":"K-3","enrollment":"NA","lat":"33.862225","lon":"-117.73839","city":"Anaheim Hills","website":"","phone":"(714) 974-1365"}
{"_id":{"$oid":"5af7493a18e4261b6296a993"},"school_name":"Canyon Rim Elementary School","school_type":"public","gsrating":"8","parentrating":"4","graderange":"K-6","enrollment":"692","lat":"33.844547","lon":"-117.74383","city":"Anaheim","website":"www.orangeusd.k12.ca.us/schools/elementary/canyonrim/index.asp","phone":"(714) 532-7027"}
{"_id":{"$oid":"5af7493a18e4261b6296a994"},"school_name":"Centralia Elementary School","school_type":"public","gsrating":"6","parentrating":"4","graderange":"K-6","enrollment":"570","lat":"33.833645","lon":"-118.00231","city":"Anaheim","website":"http://www.cesd.us/","phone":"(714) 228-3210"}
{"_id":{"$oid":"5af7493a18e4261b6296a995"},"school_name":"Cerritos Elementary School","school_type":"public","gsrating":"7","parentrating":"4","graderange":"K-6","enrollment":"502","lat":"33.8111","lon":"-118.0151","city":"Anaheim","website":"www.savsd.org","phone":"(714) 236-3830"}
{"_id":{"$oid":"5af7493a18e4261b6296a996"},"school_name":"Chez Grand Mere Preschool","school_type":"private","gsrating":"NA","parentrating":"4","graderange":"K","enrollment":"NA","lat":"33.844627","lon":"-117.94134","city":"Anaheim","website":"","phone":"(714) 758-1947"}
{"_id":{"$oid":"5af7493a18e4261b6296a997"},"school_name":"Chez Grand' Mere Preschool","school_type":"private","gsrating":"NA","parentrating":"4","graderange":"K","enrollment":"NA","lat":"33.852158","lon":"-117.92453","city":"Anaheim","website":"","phone":"(714) 635-2743"}
{"_id":{"$oid":"5af7493a18e4261b6296a998"},"school_name":"Community Day/Alternative Education/Special Education School","school_type":"public","gsrating":"NA","parentrating":"5","graderange":"7-12","enrollment":"65","lat":"33.816467","lon":"-117.94673","city":"Anaheim","website":"http://www.cde.ca.gov/re/sd/details.asp?cds=30664310105841\u0026Public=Y","phone":"(714) 999-7754"}
{"_id":{"$oid":"5af7493a18e4261b6296a999"},"school_name":"Community School of Central Orange County","school_type":"private","gsrating":"NA","parentrating":"5","graderange":"K-8","enrollment":"NA","lat":"33.826","lon":"-117.9146","city":"Anaheim","website":"","phone":"(714) 280-0851"}
{"_id":{"$oid":"5af7493a18e4261b6296a99a"},"school_name":"Cornelia Connelly School","school_type":"private","gsrating":"NA","parentrating":"5","graderange":"9-12","enrollment":"163","lat":"33.829784","lon":"-117.964035","city":"Anaheim","website":"http://www.connellyhs.org/page/","phone":"(714) 776-1717"}
{"_id":{"$oid":"5af7493a18e4261b6296a99b"},"school_name":"Crescent Elementary School","school_type":"public","gsrating":"9","parentrating":"3","graderange":"K-6","enrollment":"770","lat":"33.850426","lon":"-117.80832","city":"Anaheim","website":"www.orangeusd.k12.ca.us/schools/elementary/cresent_primary/index.asp","phone":"(714) 997-6371"}
{"_id":{"$oid":"5af7493a18e4261b6296a99c"},"school_name":"Cypress Branch Christian School","school_type":"private","gsrating":"NA","parentrating":"3","graderange":"1-12","enrollment":"NA","lat":"33.8273","lon":"-117.9875","city":"Anaheim","website":"","phone":"(714) 821-0727"}
{"_id":{"$oid":"5af7493a18e4261b6296a99d"},"school_name":"Dale Junior High School","school_type":"public","gsrating":"3","parentrating":"3","graderange":"7-8","enrollment":"1180","lat":"33.819668","lon":"-117.98379","city":"Anaheim","website":"www.auhsd.us/dale","phone":"(714) 220-4210"}
{"_id":{"$oid":"5af7493a18e4261b6296a99e"},"school_name":"Danbrook Elementary School","school_type":"public","gsrating":"7","parentrating":"4","graderange":"K-6","enrollment":"675","lat":"33.828","lon":"-118.0078","city":"Anaheim","website":"","phone":"(714) 228-3230"}
{"_id":{"$oid":"5af7493a18e4261b6296a99f"},"school_name":"Edison (Thomas) Elementary School","school_type":"public","gsrating":"1","parentrating":"4","graderange":"K-6","enrollment":"975","lat":"33.850353","lon":"-117.89636","city":"Anaheim","website":"","phone":"(714) 517-8902"}
{"_id":{"$oid":"5af7493a18e4261b6296a9a0"},"school_name":"El Rancho Charter School","school_type":"charter","gsrating":"8","parentrating":"4","graderange":"7-8","enrollment":"1155","lat":"33.856945","lon":"-117.7675","city":"Anaheim","website":"http://www.orangeusd.k12.ca.us/schools/middle/elrancho/index.asp","phone":"(714) 997-6238"}
{"_id":{"$oid":"5af7493a18e4261b6296a9a1"},"school_name":"Esperanza High School","school_type":"public","gsrating":"9","parentrating":"4","graderange":"9-12","enrollment":"1858","lat":"33.868114","lon":"-117.80378","city":"Anaheim","website":"http://www.esperanzahs.com","phone":"(714) 986-7540"}
{"_id":{"$oid":"5af7493a18e4261b6296a9a2"},"school_name":"Esther L. Walter Elementary School","school_type":"public","gsrating":"6","parentrating":"4","graderange":"K-6","enrollment":"607","lat":"33.805725","lon":"-117.97346","city":"Anaheim","website":"www.magnoliasd.org","phone":"(714) 761-5997"}
{"_id":{"$oid":"5af7493a18e4261b6296a9a3"},"school_name":"Fairmont Preparatory Academy","school_type":"private","gsrating":"NA","parentrating":"3","graderange":"9-12","enrollment":"629","lat":"33.843777","lon":"-117.96008","city":"Anaheim","website":"http://www.fairmontschools.com/gsfpa","phone":"(714) 710-8517"}
{"_id":{"$oid":"5af7493a18e4261b6296a9a4"},"school_name":"Fairmont Private Historic Anaheim Preschool School","school_type":"private","gsrating":"NA","parentrating":"5","graderange":"PK-1","enrollment":"184","lat":"33.832462","lon":"-117.92332","city":"Anaheim","website":"http://www.fairmontschools.com","phone":"(714) 710-8529"}
{"_id":{"$oid":"5af7493a18e4261b6296a9a5"},"school_name":"Fairmont Private Schools - Anaheim Hills Campus","school_type":"private","gsrating":"NA","parentrating":"4","graderange":"PK-8","enrollment":"509","lat":"33.85845","lon":"-117.80167","city":"Anaheim Hills","website":"http://www.fairmontschools.com/","phone":"(714) 710-8529"}
{"_id":{"$oid":"5af7493a18e4261b6296a9a6"},"school_name":"Fairmont Private Schools - Historic Anaheim Campus","school_type":"private","gsrating":"NA","parentrating":"4","graderange":"PK-8","enrollment":"477","lat":"33.830486","lon":"-117.935585","city":"Anaheim","website":"http://www.fairmontschools.com","phone":"(714) 710-8529"}
{"_id":{"$oid":"5af7493a18e4261b6296a9a7"},"school_name":"Faith Christian Academy Of The Cma","school_type":"private","gsrating":"NA","parentrating":"5","graderange":"1-12","enrollment":"14","lat":"33.83251","lon":"-117.91676","city":"Anaheim","website":"","phone":"(714) 774-7283"}
{"_id":{"$oid":"5af7493a18e4261b6296a9a8"},"school_name":"Franklin (Benjamin) Elementary School","school_type":"public","gsrating":"5","parentrating":"4","graderange":"K-6","enrollment":"908","lat":"33.827663","lon":"-117.91864","city":"Anaheim","website":"","phone":"(714) 517-8905"}
{"_id":{"$oid":"5af7493a18e4261b6296a9a9"},"school_name":"Frontiers Academy","school_type":"private","gsrating":"NA","parentrating":"5","graderange":"PK-8","enrollment":"100","lat":"33.83242","lon":"-117.9169","city":"Anaheim","website":"http://www.frontiersacademy.org","phone":"(714) 930-6638"}
{"_id":{"$oid":"5af7493a18e4261b6296a9aa"},"school_name":"Gauer (Melbourne A.) Elementary School","school_type":"public","gsrating":"3","parentrating":"4","graderange":"K-6","enrollment":"748","lat":"33.84315","lon":"-117.96681","city":"Anaheim","website":"","phone":"(714) 517-8908"}
{"_id":{"$oid":"5af7493a18e4261b6296a9ab"},"school_name":"Gilbert High (Continuation) School","school_type":"public","gsrating":"NA","parentrating":"5","graderange":"9-12","enrollment":"717","lat":"33.816467","lon":"-117.94673","city":"Anaheim","website":"www.auhsd.us/gilbert","phone":"(714) 999-3738"}
{"_id":{"$oid":"5af7493a18e4261b6296a9ac"},"school_name":"Glenview Elementary School","school_type":"public","gsrating":"6","parentrating":"4","graderange":"K-6","enrollment":"364","lat":"33.86815","lon":"-117.81302","city":"Anaheim","website":"","phone":"(714) 986-7150"}
{"_id":{"$oid":"5af7493a18e4261b6296a9ad"},"school_name":"Goals Academy","school_type":"charter","gsrating":"NA","parentrating":"4","graderange":"K-6","enrollment":"NA","lat":"33.84939","lon":"-117.92254","city":"Anaheim","website":"www.goalsacademy.us","phone":"(714) 956-4625"}
{"_id":{"$oid":"5af7493a18e4261b6296a9ae"},"school_name":"Grace OC Academy","school_type":"private","gsrating":"NA","parentrating":"5","graderange":"K-12","enrollment":"50","lat":"33.871494","lon":"-117.75257","city":"Anaheim","website":"www.graceocacademy.com","phone":"(714) 283-3555"}
{"_id":{"$oid":"5af7493a18e4261b6296a9af"},"school_name":"Growing In Wisdom Christian School","school_type":"private","gsrating":"NA","parentrating":"5","graderange":"K-6","enrollment":"NA","lat":"33.863506","lon":"-117.778305","city":"Anaheim","website":"","phone":"(714) 970-8896"}
{"_id":{"$oid":"5af7493a18e4261b6296a9b0"},"school_name":"Guinn (James M.) Elementary School","school_type":"public","gsrating":"2","parentrating":"4","graderange":"K-6","enrollment":"794","lat":"33.822636","lon":"-117.8811","city":"Anaheim","website":"","phone":"(714) 517-8911"}
{"_id":{"$oid":"5af7493a18e4261b6296a9b1"},"school_name":"Hansen Elementary School","school_type":"public","gsrating":"5","parentrating":"4","graderange":"K-6","enrollment":"782","lat":"33.814976","lon":"-118.00991","city":"Anaheim","website":"www.savsd.org","phone":"(714) 236-3835"}
{"_id":{"$oid":"5af7493a18e4261b6296a9b2"},"school_name":"Happy Day Education Center","school_type":"private","gsrating":"NA","parentrating":"5","graderange":"PK-6","enrollment":"NA","lat":"33.847324","lon":"-117.94693","city":"Anaheim","website":"http://www.educationcenteranaheimca.com/","phone":""}
{"_id":{"$oid":"5af7493a18e4261b6296a9b3"},"school_name":"Henry (Patrick) Elementary School","school_type":"public","gsrating":"1","parentrating":"4","graderange":"K-6","enrollment":"729","lat":"33.85118","lon":"-117.93285","city":"Anaheim","website":"","phone":"(714) 517-8914"}
{"_id":{"$oid":"5af7493a18e4261b6296a9b4"},"school_name":"Hephatha Lutheran School","school_type":"private","gsrating":"NA","parentrating":"4","graderange":"PK-8","enrollment":"305","lat":"33.851765","lon":"-117.783356","city":"Anaheim","website":"http://www.hephatha.net/school/","phone":"(714) 637-0887"}
{"_id":{"$oid":"5af7493a18e4261b6296a9b5"},"school_name":"Hillsborough Private School","school_type":"private","gsrating":"NA","parentrating":"4","graderange":"PK-6","enrollment":"120","lat":"33.863945","lon":"-117.7426","city":"Anaheim","website":"www.hillsboroughprivateschools.com","phone":"(714) 998-9030"}
{"_id":{"$oid":"5af7493a18e4261b6296a9b6"},"school_name":"Imperial Elementary School","school_type":"public","gsrating":"9","parentrating":"4","graderange":"K-6","enrollment":"491","lat":"33.844967","lon":"-117.78926","city":"Anaheim","website":"www.orangeusd.k12.ca.us/schools/elementary/imperial/index.asp","phone":"(714) 997-6282"}
{"_id":{"$oid":"5af7493a18e4261b6296a9b7"},"school_name":"Independence Christian School","school_type":"private","gsrating":"NA","parentrating":"5","graderange":"K-8","enrollment":"164","lat":"33.860268","lon":"-117.81058","city":"Anaheim","website":"http://www.independencechristianschool.com/","phone":"(714) 970-7009"}
{"_id":{"$oid":"5af7493a18e4261b6296a9b8"},"school_name":"Independence Christian School","school_type":"private","gsrating":"NA","parentrating":"5","graderange":"K-8","enrollment":"NA","lat":"33.860268","lon":"-117.81058","city":"Anaheim","website":"http://www.independencechristianschool.com/","phone":"(714) 970-7009"}
{"_id":{"$oid":"5af7493a18e4261b6296a9b9"},"school_name":"Integrity Christian School","school_type":"private","gsrating":"NA","parentrating":"5","graderange":"1-12","enrollment":"137","lat":"33.860268","lon":"-117.81058","city":"Anaheim","website":"","phone":"(714) 693-2022"}
{"_id":{"$oid":"5af7493a18e4261b6296a9ba"},"school_name":"Jefferson (Thomas) Elementary School","school_type":"public","gsrating":"4","parentrating":"4","graderange":"K-6","enrollment":"600","lat":"33.82747","lon":"-117.90598","city":"Anaheim","website":"anaheimelementary.org/jefferson ","phone":"(714) 517-8917"}
{"_id":{"$oid":"5af7493a18e4261b6296a9bb"},"school_name":"Jonas E. Salk Elementary School","school_type":"public","gsrating":"6","parentrating":"4","graderange":"K-6","enrollment":"849","lat":"33.812374","lon":"-117.96822","city":"Anaheim","website":"www.magnoliasd.org","phone":"(714) 527-5143"}
{"_id":{"$oid":"5af7493a18e4261b6296a9bc"},"school_name":"Juarez (Benito) Elementary School","school_type":"public","gsrating":"4","parentrating":"4","graderange":"K-6","enrollment":"730","lat":"33.829823","lon":"-117.88108","city":"Anaheim","website":"","phone":"(714) 517-8923"}
{"_id":{"$oid":"5af7493a18e4261b6296a9bd"},"school_name":"Juliette Low Elementary School","school_type":"public","gsrating":"5","parentrating":"5","graderange":"K-6","enrollment":"704","lat":"33.83458","lon":"-117.96439","city":"Anaheim","website":"www.magnoliasd.org","phone":"(714) 533-2673"}
{"_id":{"$oid":"5af7493a18e4261b6296a9be"},"school_name":"Katella High School","school_type":"public","gsrating":"5","parentrating":"4","graderange":"9-12","enrollment":"2692","lat":"33.824894","lon":"-117.88548","city":"Anaheim","website":"www.auhsd.us/katella","phone":"(714) 999-3621"}
{"_id":{"$oid":"5af7493a18e4261b6296a9bf"},"school_name":"Keystone Academy","school_type":"private","gsrating":"NA","parentrating":"3","graderange":"K-12","enrollment":"NA","lat":"33.827","lon":"-117.97018","city":"Anaheim","website":"","phone":"(714) 229-1315"}
{"_id":{"$oid":"5af7493a18e4261b6296a9c0"},"school_name":"Kindred Christian Academy","school_type":"private","gsrating":"NA","parentrating":"3","graderange":"1-12","enrollment":"NA","lat":"33.8679","lon":"-117.7285","city":"Anaheim","website":"","phone":"(714) 282-9941"}
{"_id":{"$oid":"5af7493a18e4261b6296a9c1"},"school_name":"Leading Edge Christian Preschool","school_type":"private","gsrating":"NA","parentrating":"5","graderange":"K","enrollment":"NA","lat":"33.817486","lon":"-117.93688","city":"Anaheim","website":"","phone":"(714) 535-5070"}
{"_id":{"$oid":"5af7493a18e4261b6296a9c2"},"school_name":"Lincoln (Abraham) Elementary School","school_type":"public","gsrating":"1","parentrating":"4","graderange":"K-6","enrollment":"947","lat":"33.837315","lon":"-117.89826","city":"Anaheim","website":"","phone":"(714) 517-8929"}
{"_id":{"$oid":"5af7493a18e4261b6296a9c3"},"school_name":"Loara Elementary School","school_type":"public","gsrating":"3","parentrating":"5","graderange":"K-6","enrollment":"553","lat":"33.829823","lon":"-117.93777","city":"Anaheim","website":"","phone":"(714) 517-8932"}
{"_id":{"$oid":"5af7493a18e4261b6296a9c4"},"school_name":"Loara High School","school_type":"public","gsrating":"5","parentrating":"4","graderange":"9-12","enrollment":"2377","lat":"33.811855","lon":"-117.94428","city":"Anaheim","website":"www.auhsd.us/loara","phone":"(714) 999-3677"}
{"_id":{"$oid":"5af7493a18e4261b6296a9c5"},"school_name":"Madison (James) Elementary School","school_type":"public","gsrating":"4","parentrating":"4","graderange":"K-6","enrollment":"660","lat":"33.809902","lon":"-117.949","city":"Anaheim","website":"www.anaheimelementary.org/madison","phone":"(714) 517-8935"}
{"_id":{"$oid":"5af7493a18e4261b6296a9c6"},"school_name":"Magnolia High School","school_type":"public","gsrating":"5","parentrating":"3","graderange":"9-12","enrollment":"1813","lat":"33.815865","lon":"-117.97174","city":"Anaheim","website":"www.auhsd.us/magnolia","phone":"(714) 220-4221"}
{"_id":{"$oid":"5af7493a18e4261b6296a9c7"},"school_name":"Mann (Horace) Elementary School","school_type":"public","gsrating":"2","parentrating":"4","graderange":"K-6","enrollment":"1062","lat":"33.846874","lon":"-117.92599","city":"Anaheim","website":"","phone":"(714) 517-8938"}
{"_id":{"$oid":"5af7493a18e4261b6296a9c8"},"school_name":"Marshall (John) Elementary School","school_type":"public","gsrating":"3","parentrating":"5","graderange":"K-6","enrollment":"752","lat":"33.84881","lon":"-117.95464","city":"Anaheim","website":"","phone":"(714) 517-8941"}
{"_id":{"$oid":"5af7493a18e4261b6296a9c9"},"school_name":"Mattie Lou Maxwell Elementary School","school_type":"public","gsrating":"5","parentrating":"4","graderange":"K-6","enrollment":"822","lat":"33.825703","lon":"-117.97664","city":"Anaheim","website":"www.magnoliasd.org","phone":"(714) 527-2217"}
{"_id":{"$oid":"5af7493a18e4261b6296a9ca"},"school_name":"Minaret Academy","school_type":"private","gsrating":"NA","parentrating":"5","graderange":"K-6","enrollment":"161","lat":"33.85179","lon":"-117.88873","city":"Anaheim","website":"http://minaretacademy.org","phone":"(714) 533-6273"}
{"_id":{"$oid":"5af7493a18e4261b6296a9cb"},"school_name":"Montessori Education Center","school_type":"private","gsrating":"NA","parentrating":"5","graderange":"K-1","enrollment":"NA","lat":"33.828503","lon":"-117.9389","city":"Anaheim","website":"http://www.montessorieducationcenterca.com/","phone":"(714) 991-7400"}
{"_id":{"$oid":"5af7493a18e4261b6296a9cc"},"school_name":"Montessori House of Children School","school_type":"private","gsrating":"NA","parentrating":"5","graderange":"K-8","enrollment":"20","lat":"33.81589","lon":"-117.97629","city":"Anaheim","website":"","phone":"(714) 761-3109"}
{"_id":{"$oid":"5af7493a18e4261b6296a9cd"},"school_name":"Montessori Learning Center","school_type":"private","gsrating":"NA","parentrating":"4","graderange":"K-3","enrollment":"13","lat":"33.837433","lon":"-117.920906","city":"Anaheim","website":"","phone":"(714) 999-6618"}
{"_id":{"$oid":"5af7493a18e4261b6296a9ce"},"school_name":"Nohl Canyon Elementary School","school_type":"public","gsrating":"9","parentrating":"4","graderange":"K-6","enrollment":"557","lat":"33.83727","lon":"-117.82712","city":"Anaheim","website":"www.orangeusd.k12.ca.us/schools/elementary/nohlcanyon/index.asp","phone":"(714) 997-6203"}
{"_id":{"$oid":"5af7493a18e4261b6296a9cf"},"school_name":"North Orange County Rop School","school_type":"public","gsrating":"NA","parentrating":"4","graderange":"9-12","enrollment":"NA","lat":"33.836567","lon":"-117.95077","city":"Anaheim","website":"www.nocrop.tec.ca.us/","phone":"(714) 502-5801"}
{"_id":{"$oid":"5af7493a18e4261b6296a9d0"},"school_name":"Olive Street Elementary School","school_type":"public","gsrating":"2","parentrating":"4","graderange":"K-6","enrollment":"660","lat":"33.824398","lon":"-117.90615","city":"Anaheim","website":"","phone":"(714) 517-8920"}
{"_id":{"$oid":"5af7493a18e4261b6296a9d1"},"school_name":"Open Door Christian Academy","school_type":"private","gsrating":"NA","parentrating":"4","graderange":"K-12","enrollment":"NA","lat":"33.8479","lon":"-117.9241","city":"Anaheim","website":"","phone":"(714) 776-7833"}
{"_id":{"$oid":"5af7493a18e4261b6296a9d2"},"school_name":"Orange County Christian School","school_type":"private","gsrating":"NA","parentrating":"3","graderange":"K-12","enrollment":"NA","lat":"33.823246","lon":"-118.002686","city":"Anaheim","website":"http://www.occs.org/","phone":"(714) 821-6227"}
{"_id":{"$oid":"5af7493a18e4261b6296a9d3"},"school_name":"Orange Grove Elementary School","school_type":"public","gsrating":"2","parentrating":"4","graderange":"K-6","enrollment":"681","lat":"33.821594","lon":"-117.91422","city":"Anaheim","website":"www.acsd.k12.ca.us","phone":"(714) 517-8968"}
{"_id":{"$oid":"5af7493a18e4261b6296a9d4"},"school_name":"Orangeview Junior High School","school_type":"public","gsrating":"5","parentrating":"4","graderange":"7-8","enrollment":"897","lat":"33.82584","lon":"-118.01373","city":"Anaheim","website":"www.auhsd.us/orangeview","phone":"(714) 220-4205"}
{"_id":{"$oid":"5af7493a18e4261b6296a9d5"},"school_name":"Palm Lane Elementary School","school_type":"public","gsrating":"2","parentrating":"3","graderange":"K-6","enrollment":"721","lat":"33.81558","lon":"-117.93727","city":"Anaheim","website":"","phone":"(714) 517-8944"}
{"_id":{"$oid":"5af7493a18e4261b6296a9d6"},"school_name":"Pelican Hills Academy","school_type":"private","gsrating":"NA","parentrating":"3","graderange":"1-12","enrollment":"NA","lat":"33.804985","lon":"-117.95799","city":"Anaheim","website":"","phone":"(714) 383-9816"}
{"_id":{"$oid":"5af7493a18e4261b6296a9d7"},"school_name":"Peter Marshall Elementary School","school_type":"public","gsrating":"7","parentrating":"4","graderange":"K-6","enrollment":"657","lat":"33.839893","lon":"-117.97753","city":"Anaheim","website":"www.magnoliasd.org","phone":"(714) 527-8821"}
{"_id":{"$oid":"5af7493a18e4261b6296a9d8"},"school_name":"Polaris High (Alternative) School","school_type":"public","gsrating":"2","parentrating":"3","graderange":"7-12","enrollment":"268","lat":"33.816467","lon":"-117.94673","city":"Anaheim","website":"www.auhsd.us/polaris","phone":"(714) 220-3077"}
{"_id":{"$oid":"5af7493a18e4261b6296a9d9"},"school_name":"Ponderosa Elementary School","school_type":"public","gsrating":"1","parentrating":"2","graderange":"K-6","enrollment":"1074","lat":"33.795277","lon":"-117.90368","city":"Anaheim","website":"www.acsd.k12.ca.us","phone":"(714) 517-8926"}
{"_id":{"$oid":"5af7493a18e4261b6296a9da"},"school_name":"Price (Adelaide) Elementary School","school_type":"public","gsrating":"5","parentrating":"4","graderange":"K-6","enrollment":"798","lat":"33.84039","lon":"-117.93561","city":"Anaheim","website":"","phone":"(714) 517-8947"}
{"_id":{"$oid":"5af7493a18e4261b6296a9db"},"school_name":"Prince Of Peace Lutheran","school_type":"private","gsrating":"NA","parentrating":"4","graderange":"K-8","enrollment":"148","lat":"33.81861","lon":"-117.931595","city":"Anaheim","website":"http://www.princeofpeaceanaheim.org ","phone":"(714) 774-0993"}
{"_id":{"$oid":"5af7493a18e4261b6296a9dc"},"school_name":"Revere (Paul) Elementary School","school_type":"public","gsrating":"3","parentrating":"4","graderange":"K-6","enrollment":"956","lat":"33.81401","lon":"-117.90847","city":"Anaheim","website":"","phone":"(714) 517-8950"}
{"_id":{"$oid":"5af7493a18e4261b6296a9dd"},"school_name":"Rio Vista Elementary School","school_type":"public","gsrating":"4","parentrating":"3","graderange":"K-5","enrollment":"915","lat":"33.84404","lon":"-117.87032","city":"Anaheim","website":"https://rve-pylusd-ca.schoolloop.com/","phone":"(714) 986-7240"}
{"_id":{"$oid":"5af7493a18e4261b6296a9de"},"school_name":"Rock Christian Academy","school_type":"private","gsrating":"NA","parentrating":"3","graderange":"K-6","enrollment":"NA","lat":"33.86467","lon":"-117.91353","city":"Anaheim","website":"","phone":"(714) 882-2043"}
{"_id":{"$oid":"5af7493a18e4261b6296a9df"},"school_name":"Rock Christian Academy","school_type":"private","gsrating":"NA","parentrating":"3","graderange":"K-6","enrollment":"76","lat":"33.84974","lon":"-117.81871","city":"Anaheim","website":"","phone":"(714) 283-3558"}
{"_id":{"$oid":"5af7493a18e4261b6296a9e0"},"school_name":"Roosevelt (Theodore) Elementary School","school_type":"public","gsrating":"4","parentrating":"3","graderange":"K-6","enrollment":"598","lat":"33.826763","lon":"-117.89239","city":"Anaheim","website":"","phone":"(714) 517-8953"}
{"_id":{"$oid":"5af7493a18e4261b6296a9e1"},"school_name":"Ross (Betsy) Elementary School","school_type":"public","gsrating":"2","parentrating":"4","graderange":"K-6","enrollment":"1009","lat":"33.82661","lon":"-117.93014","city":"Anaheim","website":"","phone":"(714) 517-8956"}
{"_id":{"$oid":"5af7493a18e4261b6296a9e2"},"school_name":"Running Springs Elementary School","school_type":"public","gsrating":"9","parentrating":"4","graderange":"K-6","enrollment":"695","lat":"33.859768","lon":"-117.7252","city":"Anaheim","website":"www.orangeusd.k12.ca.us/schools/elementary/runningsprings/index.asp","phone":"(714) 281-4512"}
{"_id":{"$oid":"5af7493a18e4261b6296a9e3"},"school_name":"Saints Of Glory","school_type":"private","gsrating":"NA","parentrating":"4","graderange":"K-12","enrollment":"NA","lat":"33.84701","lon":"-117.85249","city":"Anaheim","website":"","phone":"(714) 875-9387"}
{"_id":{"$oid":"5af7493a18e4261b6296a9e4"},"school_name":"Saints Of Glory School","school_type":"private","gsrating":"NA","parentrating":"4","graderange":"1-12","enrollment":"15","lat":"33.840103","lon":"-117.93243","city":"Anaheim","website":"","phone":"(714) 875-9387"}
{"_id":{"$oid":"5af7493a18e4261b6296a9e5"},"school_name":"Savanna High School","school_type":"public","gsrating":"4","parentrating":"4","graderange":"9-12","enrollment":"2055","lat":"33.834408","lon":"-117.96942","city":"Anaheim","website":"www.auhsd.us/savanna","phone":"(714) 220-4262"}
{"_id":{"$oid":"5af7493a18e4261b6296a9e6"},"school_name":"Serrano Heights Academy","school_type":"private","gsrating":"NA","parentrating":"5","graderange":"K-3","enrollment":"15","lat":"33.831615","lon":"-117.75953","city":"Anaheim","website":"","phone":"(714) 998-9091"}
{"_id":{"$oid":"5af7493a18e4261b6296a9e7"},"school_name":"Servite High School","school_type":"private","gsrating":"NA","parentrating":"4","graderange":"9-12","enrollment":"905","lat":"33.84551","lon":"-117.949326","city":"Anaheim","website":"http://www.servitehs.org ","phone":"(714) 774-7575"}
{"_id":{"$oid":"5af7493a18e4261b6296a9e8"},"school_name":"South Junior High School","school_type":"public","gsrating":"2","parentrating":"3","graderange":"7-8","enrollment":"1558","lat":"33.831802","lon":"-117.88309","city":"Anaheim","website":"www.auhsd.us/south","phone":"(714) 999-3667"}
{"_id":{"$oid":"5af7493a18e4261b6296a9e9"},"school_name":"Sovereign Grace Academy","school_type":"private","gsrating":"NA","parentrating":"3","graderange":"1-12","enrollment":"NA","lat":"33.807804","lon":"-117.95466","city":"Anaheim","website":"","phone":"(714) 533-4341"}
{"_id":{"$oid":"5af7493a18e4261b6296a9ea"},"school_name":"St. Catherine's Academy","school_type":"private","gsrating":"NA","parentrating":"5","graderange":"K-8","enrollment":"146","lat":"33.835537","lon":"-117.921486","city":"Anaheim","website":"http://www.stcatherinesacademy.org","phone":"(714) 772-1363"}
{"_id":{"$oid":"5af7493a18e4261b6296a9eb"},"school_name":"St. Justin Martyr","school_type":"private","gsrating":"NA","parentrating":"4","graderange":"K-8","enrollment":"203","lat":"33.817513","lon":"-117.95328","city":"Anaheim","website":"http://www.sjm-k8.com","phone":"(714) 772-4902"}
{"_id":{"$oid":"5af7493a18e4261b6296a9ec"},"school_name":"St. Marks Lutheran Preschool and Academy","school_type":"private","gsrating":"NA","parentrating":"4","graderange":"PK-3","enrollment":"NA","lat":"33.802643","lon":"-117.950615","city":"Anaheim","website":"","phone":"(714) 535-1947"}
{"_id":{"$oid":"5af7493a18e4261b6296a9ed"},"school_name":"Stoddard (Alexander J.) Elementary School","school_type":"public","gsrating":"5","parentrating":"4","graderange":"K-6","enrollment":"708","lat":"33.801907","lon":"-117.93355","city":"Anaheim","website":"","phone":"(714) 517-8959"}
{"_id":{"$oid":"5af7493a18e4261b6296a9ee"},"school_name":"Sunkist Elementary School","school_type":"public","gsrating":"3","parentrating":"4","graderange":"K-6","enrollment":"892","lat":"33.845013","lon":"-117.87943","city":"Anaheim","website":"","phone":"(714) 517-8962"}
{"_id":{"$oid":"5af7493a18e4261b6296a9ef"},"school_name":"Sycamore Junior High School","school_type":"public","gsrating":"2","parentrating":"4","graderange":"7-8","enrollment":"1408","lat":"33.844814","lon":"-117.89403","city":"Anaheim","website":"www.auhsd.us/sycamore","phone":"(714) 999-3616"}
{"_id":{"$oid":"5af7493a18e4261b6296a9f0"},"school_name":"The Islamic Education School","school_type":"private","gsrating":"NA","parentrating":"3","graderange":"K-6","enrollment":"68","lat":"33.848644","lon":"-117.95868","city":"Anaheim","website":"","phone":"(714) 999-2810"}
{"_id":{"$oid":"5af7493a18e4261b6296a9f1"},"school_name":"Trinity Lutheran Christian","school_type":"private","gsrating":"NA","parentrating":"4","graderange":"PK-8","enrollment":"118","lat":"33.83818","lon":"-117.82732","city":"Anaheim","website":"http://www.trinityanaheim.com ","phone":"(714) 637-8370"}
{"_id":{"$oid":"5af7493a18e4261b6296a9f2"},"school_name":"Twila Reid Elementary School","school_type":"public","gsrating":"5","parentrating":"4","graderange":"K-6","enrollment":"657","lat":"33.821964","lon":"-118.0014","city":"Anaheim","website":"www.savsd.org","phone":"(714) 236-3845"}
{"_id":{"$oid":"5af7493a18e4261b6296a9f3"},"school_name":"Ubm School","school_type":"private","gsrating":"NA","parentrating":"4","graderange":"K-12","enrollment":"NA","lat":"33.765823","lon":"-118.160614","city":"Anaheim","website":"","phone":"(714) 600-7700"}
{"_id":{"$oid":"5af7493a18e4261b6296a9f4"},"school_name":"Vineyard Christian School","school_type":"private","gsrating":"NA","parentrating":"3","graderange":"K-12","enrollment":"229","lat":"33.857883","lon":"-117.80025","city":"Anaheim","website":"http://www.vineyardschool.com/","phone":"(714) 777-5462"}
{"_id":{"$oid":"5af7493a18e4261b6296a9f5"},"school_name":"Walt Disney Elementary School","school_type":"public","gsrating":"8","parentrating":"4","graderange":"K-6","enrollment":"671","lat":"33.82584","lon":"-117.96387","city":"Anaheim","website":"www.magnoliasd.org","phone":"(714) 535-1183"}
{"_id":{"$oid":"5af7493a18e4261b6296a9f6"},"school_name":"Western High School","school_type":"public","gsrating":"4","parentrating":"4","graderange":"9-12","enrollment":"2124","lat":"33.82565","lon":"-118.00364","city":"Anaheim","website":"www.auhsd.us/western","phone":"(714) 220-4040"}
{"_id":{"$oid":"5af7493a18e4261b6296a9f7"},"school_name":"Westmont Elementary School","school_type":"public","gsrating":"3","parentrating":"4","graderange":"K-6","enrollment":"835","lat":"33.83762","lon":"-117.93555","city":"Anaheim","website":"","phone":"(714) 517-8965"}
{"_id":{"$oid":"5af7493a18e4261b6296a9f8"},"school_name":"Woodsboro Elementary School","school_type":"public","gsrating":"8","parentrating":"4","graderange":"K-6","enrollment":"582","lat":"33.868473","lon":"-117.77233","city":"Anaheim","website":"http://www.woodsboro.pylusd.org/","phone":"(714) 986-7040"}
{"_id":{"$oid":"5af7493a18e4261b6296a9f9"},"school_name":"Zion Lutheran Elementary School","school_type":"private","gsrating":"NA","parentrating":"4","graderange":"K-8","enrollment":"132","lat":"33.84025","lon":"-117.90321","city":"Anaheim","website":"http://www.zionanaheim.org/","phone":"(714) 535-3600"}
{"_id":{"$oid":"5af7493a18e4261b6296a9fa"},"school_name":"American Christian Academy","school_type":"private","gsrating":"NA","parentrating":"5","graderange":"1-12","enrollment":"NA","lat":"40.450294","lon":"-122.29348","city":"Anderson","website":"http://www.acaec.net/","phone":"(530) 365-2950"}
{"_id":{"$oid":"5af7493a18e4261b6296a9fb"},"school_name":"Anderson Community Day School","school_type":"public","gsrating":"NA","parentrating":"5","graderange":"9-10","enrollment":"14","lat":"40.44017","lon":"-122.306816","city":"Anderson","website":"http://www.auhsd.net","phone":"(530) 365-6054"}
{"_id":{"$oid":"5af7493a18e4261b6296a9fc"},"school_name":"Anderson Community Day Transition School","school_type":"public","gsrating":"NA","parentrating":"5","graderange":"9","enrollment":"NA","lat":"40.437263","lon":"-122.30455","city":"Anderson","website":"http://www.auhsd.net","phone":"(530) 365-1985"}
{"_id":{"$oid":"5af7493a18e4261b6296a9fd"},"school_name":"Anderson Heights Elementary School","school_type":"public","gsrating":"3","parentrating":"4","graderange":"3-4","enrollment":"260","lat":"40.436897","lon":"-122.29307","city":"Anderson","website":"","phone":"(530) 378-7050"}
{"_id":{"$oid":"5af7493a18e4261b6296a9fe"},"school_name":"Anderson High School","school_type":"public","gsrating":"5","parentrating":"4","graderange":"9-12","enrollment":"650","lat":"40.441383","lon":"-122.30595","city":"Anderson","website":"www.auhsd.net","phone":"(530) 365-2741"}
{"_id":{"$oid":"5af7493a18e4261b6296a9ff"},"school_name":"Anderson Middle School","school_type":"public","gsrating":"4","parentrating":"3","graderange":"5-8","enrollment":"521","lat":"40.444504","lon":"-122.30598","city":"Anderson","website":"","phone":"(530) 378-7060"}
{"_id":{"$oid":"5af7493a18e4261b6296aa00"},"school_name":"Anderson New Technology High School","school_type":"charter","gsrating":"4","parentrating":"5","graderange":"9-12","enrollment":"207","lat":"40.451954","lon":"-122.29969","city":"Anderson","website":"www.anths.org","phone":"(530) 365-3100"}
{"_id":{"$oid":"5af7493a18e4261b6296aa01"},"school_name":"Cascade Community Day School","school_type":"public","gsrating":"NA","parentrating":"5","graderange":"K-6","enrollment":"11","lat":"40.44847","lon":"-122.30592","city":"Anderson","website":"www.cuesd.com","phone":"(530) 378-7056"}
{"_id":{"$oid":"5af7493a18e4261b6296aa02"},"school_name":"Grace Presbyterian","school_type":"private","gsrating":"NA","parentrating":"5","graderange":"K-12","enrollment":"NA","lat":"40.44192","lon":"-122.242905","city":"Anderson","website":"","phone":"(530) 365-8812"}
{"_id":{"$oid":"5af7493a18e4261b6296aa03"},"school_name":"Happy Valley Community Day School","school_type":"public","gsrating":"NA","parentrating":"5","graderange":"K-8","enrollment":"10","lat":"40.446636","lon":"-122.40902","city":"Anderson","website":"","phone":"(530) 357-2111"}
{"_id":{"$oid":"5af7493a18e4261b6296aa04"},"school_name":"Happy Valley Elementary School","school_type":"public","gsrating":"5","parentrating":"3","graderange":"5-8","enrollment":"253","lat":"40.446636","lon":"-122.40902","city":"Anderson","website":"http://www.shastalink.k12.ca.us/happyvalley","phone":"(530) 357-2111"}
{"_id":{"$oid":"5af7493a18e4261b6296aa05"},"school_name":"Happy Valley Primary School","school_type":"public","gsrating":"6","parentrating":"5","graderange":"K-4","enrollment":"274","lat":"40.47413","lon":"-122.45447","city":"Anderson","website":"http://www.shastalink.k12.ca.us/happyvalley","phone":"(530) 357-2131"}
{"_id":{"$oid":"5af7493a18e4261b6296aa06"},"school_name":"Independent Educational Programs","school_type":"private","gsrating":"NA","parentrating":"3","graderange":"1-12","enrollment":"NA","lat":"40.445927","lon":"-122.300766","city":"Anderson","website":"","phone":"(530) 365-2393"}
{"_id":{"$oid":"5af7493a18e4261b6296aa07"},"school_name":"Independent Educational Programs","school_type":"private","gsrating":"NA","parentrating":"3","graderange":"4-11","enrollment":"39","lat":"40.44604","lon":"-122.3011","city":"Anderson","website":"http://iepschool.com/","phone":"(530) 365-2393"}
{"_id":{"$oid":"5af7493a18e4261b6296aa08"},"school_name":"Meadow Lane Elementary School","school_type":"public","gsrating":"NA","parentrating":"3","graderange":"K-2","enrollment":"410","lat":"40.45515","lon":"-122.28748","city":"Anderson","website":"http://ml.cuesd.com/","phone":"(530) 378-7030"}
{"_id":{"$oid":"5af7493a18e4261b6296aa09"},"school_name":"North Valley High School","school_type":"public","gsrating":"NA","parentrating":"4","graderange":"9-12","enrollment":"55","lat":"40.44218","lon":"-122.30299","city":"Anderson","website":"www.auhsd.net","phone":"(530) 365-6054"}
{"_id":{"$oid":"5af7493a18e4261b6296aa0a"},"school_name":"Oakview High (Alternative) School","school_type":"public","gsrating":"1","parentrating":"3","graderange":"9-12","enrollment":"114","lat":"40.44017","lon":"-122.306816","city":"Anderson","website":"http://ovhs.auhsd.net","phone":"(530) 365-6054"}
{"_id":{"$oid":"5af7493a18e4261b6296aa0b"},"school_name":"Pacheco Community Day School","school_type":"public","gsrating":"NA","parentrating":"3","graderange":"6-8","enrollment":"NA","lat":"40.447273","lon":"-122.30601","city":"Anderson","website":"http://www.pacheco.k12.ca.us","phone":"(530) 365-1801"}
{"_id":{"$oid":"5af7493a18e4261b6296aa0c"},"school_name":"Prairie Elementary School","school_type":"public","gsrating":"3","parentrating":"4","graderange":"K-3","enrollment":"284","lat":"40.48035","lon":"-122.2688","city":"Anderson","website":"www.pacheco.k12.ca.us/prairie/prairie.htm","phone":"(530) 365-1801"}
{"_id":{"$oid":"5af7493a18e4261b6296aa0d"},"school_name":"Sacred Heart Elementary School","school_type":"private","gsrating":"NA","parentrating":"4","graderange":"PK-8","enrollment":"NA","lat":"40.46246","lon":"-122.28986","city":"Anderson","website":"","phone":"(530) 365-1429"}
{"_id":{"$oid":"5af7493a18e4261b6296aa0e"},"school_name":"Shasta Christian Academy","school_type":"private","gsrating":"NA","parentrating":"4","graderange":"K-12","enrollment":"NA","lat":"40.459602","lon":"-122.29077","city":"Anderson","website":"","phone":"(530) 355-2295"}
{"_id":{"$oid":"5af7493a18e4261b6296aa0f"},"school_name":"South County Community Day School","school_type":"public","gsrating":"NA","parentrating":"4","graderange":"7-8","enrollment":"NA","lat":"40.44847","lon":"-122.30592","city":"Anderson","website":"","phone":"(530) 378-7000"}
{"_id":{"$oid":"5af7493a18e4261b6296aa10"},"school_name":"Verde Vale Elementary","school_type":"public","gsrating":"NA","parentrating":"5","graderange":"K-5","enrollment":"NA","lat":"40.465897","lon":"-122.332664","city":"Anderson","website":"","phone":"(530) 378-7040"}
{"_id":{"$oid":"5af7493a18e4261b6296aa11"},"school_name":"Bret Harte Union High School","school_type":"public","gsrating":"7","parentrating":"4","graderange":"9-12","enrollment":"681","lat":"38.0811","lon":"-120.55183","city":"Angels Camp","website":"http://bhhs-bhuhsd-ca.schoolloop.com/","phone":"(209) 736-2507"}
{"_id":{"$oid":"5af7493a18e4261b6296aa12"},"school_name":"Calaveras County Rop School","school_type":"public","gsrating":"NA","parentrating":"4","graderange":"K-12","enrollment":"NA","lat":"38.07887","lon":"-120.55325","city":"Angels Camp","website":"","phone":"(209) 736-6033"}
{"_id":{"$oid":"5af7493a18e4261b6296aa13"},"school_name":"Calaveras County Special Education (Selpa) School","school_type":"public","gsrating":"5","parentrating":"1","graderange":"K-12","enrollment":"36","lat":"38.07887","lon":"-120.55325","city":"Angels Camp","website":"www.ccoe.k12.ca.us","phone":"(209) 736-6020"}
{"_id":{"$oid":"5af7493a18e4261b6296aa14"},"school_name":"Christian Family Learning Center","school_type":"private","gsrating":"NA","parentrating":"5","graderange":"K-8","enrollment":"NA","lat":"38.039772","lon":"-120.5337","city":"Angels Camp","website":"http://cflcschool.org/","phone":"(209) 736-1175"}
{"_id":{"$oid":"5af7493a18e4261b6296aa15"},"school_name":"Christian Family Learning Center","school_type":"private","gsrating":"NA","parentrating":"5","graderange":"K-8","enrollment":"72","lat":"38.067783","lon":"-120.53853","city":"Angels Camp","website":"","phone":"(209) 736-1175"}
{"_id":{"$oid":"5af7493a18e4261b6296aa16"},"school_name":"John Vierra High School","school_type":"public","gsrating":"NA","parentrating":"4","graderange":"9-12","enrollment":"23","lat":"38.08786","lon":"-120.4746","city":"Angels Camp","website":"http://jvhs-bhuhsd-ca.schoolloop.com/","phone":"(209) 736-2507"}
{"_id":{"$oid":"5af7493a18e4261b6296aa17"},"school_name":"Mark Twain Community Day School","school_type":"public","gsrating":"NA","parentrating":"4","graderange":"7-8","enrollment":"NA","lat":"38.073177","lon":"-120.550995","city":"Angels Camp","website":"","phone":"(209) 736-6533"}
{"_id":{"$oid":"5af7493a18e4261b6296aa18"},"school_name":"Mark Twain Elementary School","school_type":"public","gsrating":"4","parentrating":"3","graderange":"K-8","enrollment":"544","lat":"38.075874","lon":"-120.55029","city":"Angels Camp","website":"http://mtwain.k12.ca.us/","phone":"(209) 736-6533"}
{"_id":{"$oid":"5af7493b18e4261b6296aa19"},"school_name":"Antioch Charter Academy","school_type":"charter","gsrating":"6","parentrating":"4","graderange":"K-8","enrollment":"197","lat":"37.98853","lon":"-121.82725","city":"Antioch","website":"www.antiochcharteracademy.org","phone":"(925) 755-7311"}
{"_id":{"$oid":"5af7493b18e4261b6296aa1a"},"school_name":"Antioch Charter Academy Ii","school_type":"charter","gsrating":"6","parentrating":"4","graderange":"K-8","enrollment":"190","lat":"38.010986","lon":"-121.82097","city":"Antioch","website":"www.antiochcharteracademy.org","phone":"(925) 755-1252"}
{"_id":{"$oid":"5af7493b18e4261b6296aa1b"},"school_name":"Antioch Christian Academy","school_type":"private","gsrating":"NA","parentrating":"4","graderange":"1-11","enrollment":"NA","lat":"37.992294","lon":"-121.83069","city":"Antioch","website":"","phone":"(925) 776-4160"}
{"_id":{"$oid":"5af7493b18e4261b6296aa1c"},"school_name":"Antioch High School","school_type":"public","gsrating":"4","parentrating":"3","graderange":"9-12","enrollment":"1774","lat":"38.006634","lon":"-121.81732","city":"Antioch","website":"www.antioch.k12.ca.us/ahs","phone":"(925) 779-7550"}
{"_id":{"$oid":"5af7493b18e4261b6296aa1d"},"school_name":"Antioch Middle School","school_type":"public","gsrating":"1","parentrating":"3","graderange":"6-8","enrollment":"759","lat":"38.005848","lon":"-121.81295","city":"Antioch","website":"http://www.antioch.k12.ca.us/","phone":"(925) 779-7400"}
{"_id":{"$oid":"5af7493b18e4261b6296aa1e"},"school_name":"Belshaw Elementary School","school_type":"public","gsrating":"3","parentrating":"4","graderange":"K-5","enrollment":"540","lat":"37.995358","lon":"-121.79941","city":"Antioch","website":"http://bes-antioch-ca.schoolloop.com/","phone":"(925) 779-7495"}
{"_id":{"$oid":"5af7493b18e4261b6296aa1f"},"school_name":"Bidwell Continuation High School","school_type":"public","gsrating":"NA","parentrating":"5","graderange":"10-12","enrollment":"180","lat":"37.999466","lon":"-121.79188","city":"Antioch","website":"http://www.antioch.k12.ca.us","phone":"(925) 779-7520"}
{"_id":{"$oid":"5af7493b18e4261b6296aa20"},"school_name":"Black Diamond Middle School","school_type":"public","gsrating":"1","parentrating":"3","graderange":"6-8","enrollment":"816","lat":"37.96984","lon":"-121.767685","city":"Antioch","website":"http://www.antioch.k12.ca.us/bdms/","phone":"(925) 776-5500"}
{"_id":{"$oid":"5af7493b18e4261b6296aa21"},"school_name":"Bridges School","school_type":"public","gsrating":"NA","parentrating":"3","graderange":"9-12","enrollment":"8","lat":"38.016663","lon":"-121.81946","city":"Antioch","website":"","phone":"(925) 779-7440"}
{"_id":{"$oid":"5af7493b18e4261b6296aa22"},"school_name":"California Christian Academy","school_type":"private","gsrating":"NA","parentrating":"3","graderange":"K-8","enrollment":"NA","lat":"38.005276","lon":"-121.80364","city":"Antioch","website":"","phone":"(866) 620-9779"}
{"_id":{"$oid":"5af7493b18e4261b6296aa23"},"school_name":"California Educational Alternatives School","school_type":"private","gsrating":"NA","parentrating":"3","graderange":"10-12","enrollment":"NA","lat":"38.017086","lon":"-121.81339","city":"Antioch","website":"","phone":"(925) 325-7246"}
{"_id":{"$oid":"5af7493b18e4261b6296aa24"},"school_name":"Carmen Dragon Elementary School","school_type":"public","gsrating":"3","parentrating":"4","graderange":"K-5","enrollment":"481","lat":"37.968304","lon":"-121.75269","city":"Antioch","website":"http://cdes-antioch-ca.schoolloop.com/","phone":"(925) 779-7475"}
{"_id":{"$oid":"5af7493b18e4261b6296aa25"},"school_name":"Cornerstone Christian School","school_type":"private","gsrating":"NA","parentrating":"4","graderange":"K-12","enrollment":"NA","lat":"38.004917","lon":"-121.77922","city":"Antioch","website":"http://cornerstonechristian.net/","phone":"(925) 779-2010"}
{"_id":{"$oid":"5af7493b18e4261b6296aa26"},"school_name":"Dallas Ranch Middle School","school_type":"public","gsrating":"3","parentrating":"4","graderange":"6-8","enrollment":"1238","lat":"37.969177","lon":"-121.79859","city":"Antioch","website":"http://www.antioch.k12.ca.us","phone":"(925) 779-7485"}
{"_id":{"$oid":"5af7493b18e4261b6296aa27"},"school_name":"Deer Valley High School","school_type":"public","gsrating":"5","parentrating":"3","graderange":"9-12","enrollment":"2659","lat":"37.969","lon":"-121.7777","city":"Antioch","website":"http://dvhs-antioch-ca.schoolloop.com/","phone":"(925) 776-5555"}
{"_id":{"$oid":"5af7493b18e4261b6296aa28"},"school_name":"Diablo Vista Elementary School","school_type":"public","gsrating":"4","parentrating":"4","graderange":"K-5","enrollment":"546","lat":"37.956158","lon":"-121.76943","city":"Antioch","website":"http://dves-antioch-ca.schoolloop.com/","phone":"(925) 779-7470"}
{"_id":{"$oid":"5af7493b18e4261b6296aa29"},"school_name":"Dozier-Libbey Medical High School","school_type":"public","gsrating":"8","parentrating":"4","graderange":"9-12","enrollment":"652","lat":"37.949047","lon":"-121.77743","city":"Antioch","website":"http://dlmhs-antioch-ca.schoolloop.com/","phone":"(925) 779-7540"}
{"_id":{"$oid":"5af7493b18e4261b6296aa2a"},"school_name":"East County Elementary Special Education School","school_type":"public","gsrating":"3","parentrating":"4","graderange":"K-12","enrollment":"63","lat":"38.002434","lon":"-121.851","city":"Antioch","website":"www.cocoschools.org","phone":"(925) 777-2000"}
{"_id":{"$oid":"5af7493b18e4261b6296aa2b"},"school_name":"Fremont Elementary School","school_type":"public","gsrating":"1","parentrating":"4","graderange":"K-5","enrollment":"552","lat":"38.00739","lon":"-121.8113","city":"Antioch","website":"https://fes-antioch-ca.schoolloop.com/","phone":"(925) 779-7405"}
{"_id":{"$oid":"5af7493b18e4261b6296aa2c"},"school_name":"Grant Elementary School","school_type":"public","gsrating":"2","parentrating":"4","graderange":"K-5","enrollment":"500","lat":"37.985626","lon":"-121.76741","city":"Antioch","website":"","phone":"(925) 779-7465"}
{"_id":{"$oid":"5af7493b18e4261b6296aa2d"},"school_name":"Heritage Baptist Academy","school_type":"private","gsrating":"NA","parentrating":"4","graderange":"K-12","enrollment":"93","lat":"37.956566","lon":"-121.7517","city":"Antioch","website":"http://www.heritagebaptistacademy.com/","phone":"(925) 778-2234"}
{"_id":{"$oid":"5af7493b18e4261b6296aa2e"},"school_name":"Hilltop Christian","school_type":"private","gsrating":"NA","parentrating":"4","graderange":"K-8","enrollment":"102","lat":"37.968525","lon":"-121.78324","city":"Antioch","website":"www.hilltopcs.org","phone":"(925) 778-0214"}
{"_id":{"$oid":"5af7493b18e4261b6296aa2f"},"school_name":"Holy Rosary","school_type":"private","gsrating":"NA","parentrating":"4","graderange":"K-8","enrollment":"530","lat":"38.007195","lon":"-121.80533","city":"Antioch","website":"http://www.holyrosarycatholicschool.org/","phone":"(925) 757-1270"}
{"_id":{"$oid":"5af7493b18e4261b6296aa30"},"school_name":"Jack London Elementary School","school_type":"public","gsrating":"3","parentrating":"4","graderange":"K-5","enrollment":"515","lat":"37.972286","lon":"-121.77411","city":"Antioch","website":"https://jles-antioch-ca.schoolloop.com/","phone":"(925) 779-7455"}
{"_id":{"$oid":"5af7493b18e4261b6296aa31"},"school_name":"Kimball Elementary School","school_type":"public","gsrating":"3","parentrating":"3","graderange":"K-5","enrollment":"544","lat":"38.006893","lon":"-121.80177","city":"Antioch","website":"http://www.antioch.k12.ca.us/","phone":"(925) 779-7415"}
{"_id":{"$oid":"5af7493b18e4261b6296aa32"},"school_name":"La Cheim School","school_type":"private","gsrating":"NA","parentrating":"3","graderange":"4-12","enrollment":"9","lat":"38.007824","lon":"-121.812325","city":"Antioch","website":"","phone":"(925) 777-1133"}
{"_id":{"$oid":"5af7493b18e4261b6296aa33"},"school_name":"Live Oak High (Continuation) School","school_type":"public","gsrating":"NA","parentrating":"5","graderange":"10-12","enrollment":"165","lat":"38.00606","lon":"-121.81257","city":"Antioch","website":"","phone":"(925) 779-7440"}
{"_id":{"$oid":"5af7493b18e4261b6296aa34"},"school_name":"Lone Tree Elementary School","school_type":"public","gsrating":"3","parentrating":"4","graderange":"K-5","enrollment":"747","lat":"37.962257","lon":"-121.78925","city":"Antioch","website":"http://www.antioch.k12.ca.us","phone":"(925) 779-7480"}
{"_id":{"$oid":"5af7493b18e4261b6296aa35"},"school_name":"Marsh Elementary School","school_type":"public","gsrating":"1","parentrating":"3","graderange":"K-5","enrollment":"537","lat":"37.99971","lon":"-121.81621","city":"Antioch","website":"http://mes-antioch-ca.schoolloop.com/","phone":"(925) 779-7410"}
{"_id":{"$oid":"5af7493b18e4261b6296aa36"},"school_name":"Mission Elementary School","school_type":"public","gsrating":"3","parentrating":"4","graderange":"K-5","enrollment":"672","lat":"37.996563","lon":"-121.83235","city":"Antioch","website":"http://www.antioch.k12.ca.us/","phone":"(925) 779-7435"}
{"_id":{"$oid":"5af7493b18e4261b6296aa37"},"school_name":"Muir (John) Elementary School","school_type":"public","gsrating":"4","parentrating":"4","graderange":"K-5","enrollment":"598","lat":"37.9773","lon":"-121.79455","city":"Antioch","website":"","phone":"(925) 779-7450"}
{"_id":{"$oid":"5af7493b18e4261b6296aa38"},"school_name":"New Horizon Academy","school_type":"private","gsrating":"NA","parentrating":"4","graderange":"K-12","enrollment":"NA","lat":"37.964367","lon":"-121.79765","city":"Antioch","website":"","phone":"(925) 706-8100"}
{"_id":{"$oid":"5af7493b18e4261b6296aa39"},"school_name":"Paideia Academy","school_type":"private","gsrating":"NA","parentrating":"4","graderange":"K-12","enrollment":"NA","lat":"37.99307","lon":"-121.79989","city":"Antioch","website":"http://www.paideiacademy.com/","phone":"(925) 628-4033"}
{"_id":{"$oid":"5af7493b18e4261b6296aa3a"},"school_name":"Paideia Academy","school_type":"private","gsrating":"NA","parentrating":"4","graderange":"K-12","enrollment":"NA","lat":"37.993095","lon":"-121.79969","city":"Antioch","website":"http://www.paideiacademy.com/","phone":"(925) 628-4033"}
{"_id":{"$oid":"5af7493b18e4261b6296aa3b"},"school_name":"Park Middle School","school_type":"public","gsrating":"3","parentrating":"4","graderange":"6-8","enrollment":"997","lat":"37.99241","lon":"-121.8128","city":"Antioch","website":"http://www.antioch.k12.ca.us","phone":"(925) 779-7420"}
{"_id":{"$oid":"5af7493b18e4261b6296aa3c"},"school_name":"Prospects High (Alternative) School","school_type":"public","gsrating":"2","parentrating":"5","graderange":"K-12","enrollment":"433","lat":"38.01694","lon":"-121.8162","city":"Antioch","website":"","phone":"(925) 779-7490"}
{"_id":{"$oid":"5af7493b18e4261b6296aa3d"},"school_name":"RLS Center for Education","school_type":"private","gsrating":"NA","parentrating":"5","graderange":"1-12","enrollment":"NA","lat":"37.98836","lon":"-121.81597","city":"Antioch","website":"","phone":"(925) 757-7414"}
{"_id":{"$oid":"5af7493b18e4261b6296aa3e"},"school_name":"Resilience School of Health","school_type":"private","gsrating":"NA","parentrating":"5","graderange":"4, 7, 9-12","enrollment":"NA","lat":"37.998543","lon":"-121.83622","city":"Antioch","website":"","phone":"(925) 978-2303"}
{"_id":{"$oid":"5af7493b18e4261b6296aa3f"},"school_name":"Shining Star Christian Academy","school_type":"private","gsrating":"NA","parentrating":"5","graderange":"K-12","enrollment":"NA","lat":"38.0073","lon":"-121.7844","city":"Antioch","website":"","phone":"(925) 778-4933"}
{"_id":{"$oid":"5af7493b18e4261b6296aa40"},"school_name":"Steppingstones Academy","school_type":"private","gsrating":"NA","parentrating":"5","graderange":"K-11","enrollment":"NA","lat":"37.994","lon":"-121.8003","city":"Antioch","website":"","phone":"(925) 754-2209"}
{"_id":{"$oid":"5af7493b18e4261b6296aa41"},"school_name":"Sutter Elementary School","school_type":"public","gsrating":"3","parentrating":"5","graderange":"K-5","enrollment":"631","lat":"37.984665","lon":"-121.81281","city":"Antioch","website":"https://sutter-antioch-ca.schoolloop.com/","phone":"(925) 779-7425"}
{"_id":{"$oid":"5af7493b18e4261b6296aa42"},"school_name":"The City Christian Academy","school_type":"private","gsrating":"NA","parentrating":"5","graderange":"K-8","enrollment":"NA","lat":"38.00646","lon":"-121.832115","city":"Antioch","website":"","phone":"(925) 238-0330"}
{"_id":{"$oid":"5af7493b18e4261b6296aa43"},"school_name":"Turner Elementary School","school_type":"public","gsrating":"1","parentrating":"3","graderange":"K-5","enrollment":"613","lat":"38.002434","lon":"-121.851","city":"Antioch","website":"http://turner-antioch-ca.schoolloop.com/","phone":"(925) 779-7430"}
{"_id":{"$oid":"5af7493b18e4261b6296aa44"},"school_name":"Zion Christian Academy","school_type":"private","gsrating":"NA","parentrating":"3","graderange":"K-12","enrollment":"NA","lat":"38.0169","lon":"-121.81229","city":"Antioch","website":"","phone":"(925) 565-0530"}
{"_id":{"$oid":"5af7493b18e4261b6296aa45"},"school_name":"Academy for Academic Excellence","school_type":"charter","gsrating":"7","parentrating":"4","graderange":"K-12","enrollment":"1371","lat":"34.533855","lon":"-117.27994","city":"Apple Valley","website":"www.lewiscenter.org","phone":"(760) 946-5414"}
{"_id":{"$oid":"5af7493b18e4261b6296aa46"},"school_name":"Apple Valley Christian School","school_type":"private","gsrating":"NA","parentrating":"4","graderange":"PK-12","enrollment":"234","lat":"34.49401","lon":"-117.178665","city":"Apple Valley","website":"http://www.avcschool.com","phone":"(760) 995-3516"}
{"_id":{"$oid":"5af7493b18e4261b6296aa47"},"school_name":"Apple Valley High School","school_type":"public","gsrating":"5","parentrating":"4","graderange":"9-12","enrollment":"2263","lat":"34.46769","lon":"-117.19015","city":"Apple Valley","website":"http://www.avhs.net/","phone":"(760) 247-7206"}
{"_id":{"$oid":"5af7493b18e4261b6296aa48"},"school_name":"Apple Valley K-12 Academy","school_type":"private","gsrating":"NA","parentrating":"4","graderange":"K-12","enrollment":"NA","lat":"34.5555","lon":"-117.1897","city":"Apple Valley","website":"","phone":"(760) 646-9896"}
{"_id":{"$oid":"5af7493b18e4261b6296aa49"},"school_name":"Apple Valley Private School","school_type":"private","gsrating":"NA","parentrating":"1","graderange":"K-10","enrollment":"NA","lat":"34.58696","lon":"-117.12647","city":"Apple Valley","website":"","phone":"(760) 247-9558"}
{"_id":{"$oid":"5af7493b18e4261b6296aa4a"},"school_name":"Apple Valley Village School","school_type":"private","gsrating":"NA","parentrating":"1","graderange":"PK-7","enrollment":"NA","lat":"34.5009","lon":"-117.19483","city":"Apple Valley","website":"","phone":"(760) 247-3786"}
{"_id":{"$oid":"5af7493b18e4261b6296aa4b"},"school_name":"Avfc Prepatory School","school_type":"private","gsrating":"NA","parentrating":"2","graderange":"K-11","enrollment":"NA","lat":"34.4703","lon":"-117.22863","city":"Apple Valley","website":"","phone":"(760) 247-2933"}
{"_id":{"$oid":"5af7493b18e4261b6296aa4c"},"school_name":"Clark's Academy","school_type":"private","gsrating":"NA","parentrating":"2","graderange":"K-12","enrollment":"NA","lat":"34.518986","lon":"-117.17625","city":"Apple Valley","website":"","phone":"(760) 810-7335"}
{"_id":{"$oid":"5af7493b18e4261b6296aa4d"},"school_name":"Cornerstone Christian Academy Of The High Desert","school_type":"private","gsrating":"NA","parentrating":"2","graderange":"1-12","enrollment":"NA","lat":"34.552273","lon":"-117.170685","city":"Apple Valley","website":"http://www.ccahighdesert.org","phone":"(760) 240-4408"}
{"_id":{"$oid":"5af7493b18e4261b6296aa4e"},"school_name":"Desert Knolls Elementary School","school_type":"public","gsrating":"3","parentrating":"4","graderange":"K-6","enrollment":"605","lat":"34.529884","lon":"-117.26464","city":"Apple Valley","website":"http://www.avusd.org/dkweb5/dkweb1.htm","phone":"(760) 242-3441"}
{"_id":{"$oid":"5af7493b18e4261b6296aa4f"},"school_name":"Fairview Valley Sports Academy","school_type":"private","gsrating":"NA","parentrating":"4","graderange":"K-12","enrollment":"NA","lat":"34.565132","lon":"-117.08034","city":"Apple Valley","website":"","phone":"(760) 220-1008"}
{"_id":{"$oid":"5af7493b18e4261b6296aa50"},"school_name":"Granite Hills High School","school_type":"public","gsrating":"3","parentrating":"3","graderange":"9-12","enrollment":"1533","lat":"34.50804","lon":"-117.16394","city":"Apple Valley","website":"","phone":"(760) 961-2290"}
{"_id":{"$oid":"5af7493b18e4261b6296aa51"},"school_name":"High Desert Haven NPS","school_type":"private","gsrating":"NA","parentrating":"3","graderange":"n/a","enrollment":"NA","lat":"34.55378","lon":"-117.173004","city":"Apple Valley","website":"","phone":"(760) 240-9896"}
{"_id":{"$oid":"5af7493b18e4261b6296aa52"},"school_name":"High Desert Haven Non Public School","school_type":"private","gsrating":"NA","parentrating":"1","graderange":"3-12","enrollment":"NA","lat":"34.540817","lon":"-117.277016","city":"Apple Valley","website":"","phone":"(760) 946-5235"}
{"_id":{"$oid":"5af7493b18e4261b6296aa53"},